transit_timestamp,station_complex_id,station_complex,borough,latitude,longitude,ridership
2023Q1,1,"Astoria-Ditmars Blvd (N,W)",Queens,40.775036,-73.912034,820698
2023Q1,10,"49 St (N,R,W)",Manhattan,40.759901,-73.984139,1233349
2023Q1,100,"Hewes St (M,J)",Brooklyn,40.70687,-73.953431,159918
2023Q1,101,"Marcy Av (M,J,Z)",Brooklyn,40.708359,-73.957757,740053
2023Q1,103,"Bowery (J,Z)",Manhattan,40.72028,-73.993915,200864
2023Q1,107,"Broad St (J,Z)",Manhattan,40.706476,-74.011056,292249
2023Q1,108,Middle Village-Metropolitan Av (M),Queens,40.711396,-73.889601,208718
2023Q1,109,Fresh Pond Rd (M),Queens,40.706186,-73.895877,318252
2023Q1,110,Forest Av (M),Queens,40.704423,-73.903077,240014
2023Q1,111,Seneca Av (M),Queens,40.702762,-73.90774,168759
2023Q1,113,Knickerbocker Av (M),Brooklyn,40.698664,-73.919711,236153
2023Q1,114,Central Av (M),Brooklyn,40.697857,-73.927397,220319
2023Q1,118,3 Av (L),Manhattan,40.732849,-73.986122,362932
2023Q1,119,1 Av (L),Manhattan,40.730953,-73.981628,1372547
2023Q1,120,Bedford Av (L),Brooklyn,40.717304,-73.956872,1830806
2023Q1,122,Graham Av (L),Brooklyn,40.714565,-73.944053,500722
2023Q1,123,Grand St (L),Brooklyn,40.711926,-73.94067,370798
2023Q1,124,Montrose Av (L),Brooklyn,40.707739,-73.93985,393027
2023Q1,125,Morgan Av (L),Brooklyn,40.706152,-73.933147,403238
2023Q1,126,Jefferson St (L),Brooklyn,40.706607,-73.922913,439974
2023Q1,127,DeKalb Av (L),Brooklyn,40.703811,-73.918425,653486
2023Q1,129,Halsey St (L),Queens,40.695602,-73.904084,458995
2023Q1,13,"28 St (R,W)",Manhattan,40.745494,-73.988691,636473
2023Q1,130,Wilson Av (L),Brooklyn,40.688764,-73.904046,243849
2023Q1,131,Bushwick Av-Aberdeen St (L),Brooklyn,40.682829,-73.905249,135476
2023Q1,133,Atlantic Av (L),Brooklyn,40.675345,-73.903097,90257
2023Q1,134,Sutter Av (L),Brooklyn,40.669367,-73.901975,135502
2023Q1,135,Livonia Av (L),Brooklyn,40.664038,-73.900571,174233
2023Q1,136,New Lots Av (L),Brooklyn,40.658733,-73.899232,191704
2023Q1,137,East 105 St (L),Brooklyn,40.650573,-73.899485,156407
2023Q1,138,Canarsie-Rockaway Pkwy (L),Brooklyn,40.646654,-73.90185,188080
2023Q1,14,"23 St (R,W)",Manhattan,40.741303,-73.989344,1017061
2023Q1,141,Park Pl (S),Brooklyn,40.674772,-73.957624,83653
2023Q1,143,Inwood-207 St (A),Manhattan,40.868072,-73.919899,400540
2023Q1,144,Dyckman St (A),Manhattan,40.865491,-73.927271,307707
2023Q1,145,190 St (A),Manhattan,40.859022,-73.93418,213387
2023Q1,146,181 St (A),Manhattan,40.851695,-73.937969,470779
2023Q1,147,175 St (A),Manhattan,40.847391,-73.939704,545250
2023Q1,149,163 St-Amsterdam Av (C),Manhattan,40.836013,-73.939892,203022
2023Q1,150,155 St (C),Manhattan,40.830518,-73.941514,128496
2023Q1,151,"145 St (A,C,B,D)",Manhattan,40.824783,-73.944216,2325232
2023Q1,152,"135 St (C,B)",Manhattan,40.817894,-73.947649,262491
2023Q1,153,"125 St (A,C,B,D)",Manhattan,40.811109,-73.952343,1365291
2023Q1,154,"116 St (C,B)",Manhattan,40.805085,-73.954882,363165
2023Q1,155,"Cathedral Pkwy (110 St) (C,B)",Manhattan,40.800603,-73.958161,399164
2023Q1,156,"103 St (C,B)",Manhattan,40.796092,-73.961454,239241
2023Q1,157,"96 St (C,B)",Manhattan,40.791642,-73.964696,498958
2023Q1,158,"86 St (C,B)",Manhattan,40.785868,-73.968916,571306
2023Q1,159,"81 St-Museum of Natural History (C,B)",Manhattan,40.781433,-73.972143,719355
2023Q1,16,"8 St-NYU (R,W)",Manhattan,40.730328,-73.992629,934125
2023Q1,160,"72 St (C,B)",Manhattan,40.775594,-73.97641,468227
2023Q1,162,"50 St (C,E)",Manhattan,40.762456,-73.985984,1066437
2023Q1,164,"34 St-Penn Station (A,C,E)",Manhattan,40.752287,-73.993391,3930385
2023Q1,165,"23 St (C,E)",Manhattan,40.745906,-73.998041,982434
2023Q1,167,"W 4 St-Wash Sq (A,C,E,B,D,F,M)",Manhattan,40.732338,-74.000495,4650216
2023Q1,168,"Spring St (C,E)",Manhattan,40.726227,-74.003739,668332
2023Q1,169,"Canal St (A,C,E)",Manhattan,40.720824,-74.005229,929734
2023Q1,17,"Prince St (R,W)",Manhattan,40.724329,-73.997702,706360
2023Q1,173,"High St (A,C)",Brooklyn,40.699337,-73.990531,485758
2023Q1,175,"Hoyt-Schermerhorn Sts (A,C,G)",Brooklyn,40.688484,-73.985001,668215
2023Q1,176,Lafayette Av (C),Brooklyn,40.686113,-73.973946,300948
2023Q1,177,Clinton-Washington Avs (C),Brooklyn,40.683263,-73.965838,387353
2023Q1,179,"Nostrand Av (A,C)",Brooklyn,40.680438,-73.950426,907866
2023Q1,180,Kingston-Throop Avs (C),Brooklyn,40.679921,-73.940858,348173
2023Q1,181,"Utica Av (A,C)",Brooklyn,40.679364,-73.930729,725191
2023Q1,182,Ralph Av (C),Brooklyn,40.678822,-73.920786,263444
2023Q1,183,Rockaway Av (C),Brooklyn,40.67834,-73.911946,264836
2023Q1,185,Liberty Av (C),Brooklyn,40.674542,-73.896548,129905
2023Q1,186,Van Siclen Av (C),Brooklyn,40.67271,-73.890358,128583
2023Q1,187,Shepherd Av (C),Brooklyn,40.67413,-73.88075,139549
2023Q1,188,"Euclid Av (A,C)",Brooklyn,40.675377,-73.872106,516818
2023Q1,189,Grant Av (A),Brooklyn,40.677044,-73.86505,296186
2023Q1,190,80 St (A),Queens,40.679371,-73.858992,228224
2023Q1,191,88 St (A),Queens,40.679843,-73.85147,144915
2023Q1,192,Rockaway Blvd (A),Queens,40.680429,-73.843853,390338
2023Q1,193,104 St (A),Queens,40.681711,-73.837683,97747
2023Q1,194,111 St (A),Queens,40.684331,-73.832163,120516
2023Q1,195,Ozone Park-Lefferts Blvd (A),Queens,40.685951,-73.825798,339948
2023Q1,196,Aqueduct Racetrack (A),Queens,40.672097,-73.835919,49100
2023Q1,197,Aqueduct-N Conduit Av (A),Queens,40.668234,-73.834058,40411
2023Q1,198,Howard Beach-JFK Airport (A),Queens,40.660476,-73.830301,151101
2023Q1,199,"Broad Channel (A,S)",Queens,40.608382,-73.815925,14239
2023Q1,2,"Astoria Blvd (N,W)",Queens,40.770258,-73.917843,565078
2023Q1,20,"City Hall (R,W)",Manhattan,40.713282,-74.006978,251212
2023Q1,200,"Beach 90 St (A,S)",Queens,40.588034,-73.813641,32903
2023Q1,201,"Beach 98 St (A,S)",Queens,40.585307,-73.820558,21378
2023Q1,202,"Beach 105 St (A,S)",Queens,40.583209,-73.827559,10804
2023Q1,203,"Rockaway Park-Beach 116 St (A,S)",Queens,40.580903,-73.835592,33441
2023Q1,204,Beach 67 St (A),Queens,40.590927,-73.796924,110431
2023Q1,205,Beach 60 St (A),Queens,40.592374,-73.788522,92755
2023Q1,206,Beach 44 St (A),Queens,40.592943,-73.776013,36111
2023Q1,207,Beach 36 St (A),Queens,40.595398,-73.768175,45287
2023Q1,208,Beach 25 St (A),Queens,40.600066,-73.761353,85164
2023Q1,209,Far Rockaway-Mott Av (A),Queens,40.603995,-73.755405,216813
2023Q1,210,Norwood-205 St (D),Bronx,40.874811,-73.878855,345671
2023Q1,211,"Bedford Park Blvd (B,D)",Bronx,40.873244,-73.887138,297768
2023Q1,212,"Kingsbridge Rd (B,D)",Bronx,40.866978,-73.893509,298885
2023Q1,213,"Fordham Rd (B,D)",Bronx,40.861296,-73.897749,493841
2023Q1,214,"182-183 Sts (B,D)",Bronx,40.856093,-73.900741,213621
2023Q1,215,"Tremont Av (B,D)",Bronx,40.85041,-73.905227,330338
2023Q1,216,"174-175 Sts (B,D)",Bronx,40.8459,-73.910136,211767
2023Q1,217,"170 St (B,D)",Bronx,40.839306,-73.9134,273835
2023Q1,218,"167 St (B,D)",Bronx,40.833771,-73.91844,358389
2023Q1,22,"Rector St (R,W)",Manhattan,40.70722,-74.013342,255379
2023Q1,220,"155 St (B,D)",Manhattan,40.830135,-73.938209,149461
2023Q1,221,21 St-Queensbridge (F),Queens,40.754203,-73.942836,531053
2023Q1,222,Roosevelt Island (F),Manhattan,40.759145,-73.95326,446102
2023Q1,223,"Lexington Av/63 St (F,Q)",Manhattan,40.764629,-73.966113,1092888
2023Q1,224,57 St (F),Manhattan,40.763972,-73.97745,764640
2023Q1,225,"47-50 Sts-Rockefeller Ctr (B,D,F,M)",Manhattan,40.758663,-73.981329,2694357
2023Q1,228,"23 St (F,M)",Manhattan,40.742878,-73.992821,1346693
2023Q1,231,"Grand St (B,D)",Manhattan,40.718267,-73.993753,1408032
2023Q1,232,2 Av (F),Manhattan,40.723402,-73.989938,979207
2023Q1,234,East Broadway (F),Manhattan,40.713715,-73.990173,854516
2023Q1,235,York St (F),Brooklyn,40.701397,-73.986751,691236
2023Q1,236,"Bergen St (F,G)",Brooklyn,40.686145,-73.990862,675283
2023Q1,237,"Carroll St (F,G)",Brooklyn,40.680303,-73.995048,647003
2023Q1,238,"Smith-9 Sts (F,G)",Brooklyn,40.67358,-73.995959,245073
2023Q1,240,"7 Av (F,G)",Brooklyn,40.666271,-73.980305,673183
2023Q1,241,"15 St-Prospect Park (F,G)",Brooklyn,40.660365,-73.979493,336521
2023Q1,242,"Fort Hamilton Pkwy (F,G)",Brooklyn,40.650782,-73.975776,326434
2023Q1,243,"Church Av (F,G)",Brooklyn,40.644041,-73.979678,529542
2023Q1,244,Ditmas Av (F),Brooklyn,40.636119,-73.978172,215650
2023Q1,245,18 Av (F),Brooklyn,40.629755,-73.976971,189637
2023Q1,246,Avenue I (F),Brooklyn,40.625322,-73.976127,103735
2023Q1,247,Bay Pkwy (F),Brooklyn,40.620769,-73.975264,71618
2023Q1,248,Avenue N (F),Brooklyn,40.61514,-73.974197,157290
2023Q1,249,Avenue P (F),Brooklyn,40.608944,-73.973022,137420
2023Q1,250,Kings Hwy (F),Brooklyn,40.603217,-73.972361,196204
2023Q1,251,Avenue U (F),Brooklyn,40.596063,-73.973357,92886
2023Q1,252,Avenue X (F),Brooklyn,40.58962,-73.97425,126110
2023Q1,253,Neptune Av (F),Brooklyn,40.581011,-73.974574,80784
2023Q1,254,Jamaica-179 St (F),Queens,40.712646,-73.783817,998052
2023Q1,255,169 St (F),Queens,40.71047,-73.793604,408491
2023Q1,256,Parsons Blvd (F),Queens,40.707564,-73.803326,394718
2023Q1,257,Sutphin Blvd (F),Queens,40.70546,-73.810708,220961
2023Q1,258,"Briarwood (E,F)",Queens,40.709179,-73.820574,260917
2023Q1,259,"Kew Gardens-Union Tpke (E,F)",Queens,40.714441,-73.831008,1217217
2023Q1,26,"DeKalb Av (B,Q,R)",Brooklyn,40.690635,-73.981824,1090470
2023Q1,260,"75 Av (E,F)",Queens,40.718331,-73.837324,175668
2023Q1,261,"Forest Hills-71 Av (E,F,M,R)",Queens,40.721691,-73.844521,1346991
2023Q1,262,"67 Av (M,R)",Queens,40.726523,-73.852719,400408
2023Q1,263,"63 Dr-Rego Park (M,R)",Queens,40.729846,-73.861604,741875
2023Q1,264,"Woodhaven Blvd (M,R)",Queens,40.733106,-73.869229,991847
2023Q1,265,"Grand Av-Newtown (M,R)",Queens,40.737015,-73.877223,926428
2023Q1,266,"Elmhurst Av (M,R)",Queens,40.742454,-73.882017,607517
2023Q1,268,"65 St (M,R)",Queens,40.749669,-73.898453,182711
2023Q1,269,"Northern Blvd (M,R)",Queens,40.752885,-73.906006,342894
2023Q1,270,"46 St (M,R)",Queens,40.756312,-73.913333,422755
2023Q1,271,"Steinway St (M,R)",Queens,40.756879,-73.92074,671833
2023Q1,272,"36 St (M,R)",Queens,40.752039,-73.928781,196464
2023Q1,273,"Queens Plaza (E,M,R)",Queens,40.748973,-73.937243,775437
2023Q1,276,"5 Av/53 St (E,M)",Manhattan,40.760167,-73.975224,1040841
2023Q1,277,"7 Av (E,B,D)",Manhattan,40.762862,-73.981637,855809
2023Q1,278,"Jamaica Center-Parsons/Archer (E,J,Z)",Queens,40.702147,-73.801109,1485031
2023Q1,279,"Sutphin Blvd-Archer Av-JFK Airport (E,J,Z)",Queens,40.700486,-73.807969,1349833
2023Q1,28,Union St (R),Brooklyn,40.677316,-73.98311,404747
2023Q1,280,Jamaica-Van Wyck (E),Queens,40.702566,-73.816859,239452
2023Q1,282,21 St (G),Queens,40.744065,-73.949724,108676
2023Q1,283,Greenpoint Av (G),Brooklyn,40.731352,-73.954449,595486
2023Q1,284,Nassau Av (G),Brooklyn,40.724635,-73.951277,590691
2023Q1,286,Broadway (G),Brooklyn,40.706092,-73.950308,287431
2023Q1,287,Flushing Av (G),Brooklyn,40.700377,-73.950234,189890
2023Q1,288,Myrtle-Willoughby Avs (G),Brooklyn,40.694568,-73.949046,325650
2023Q1,289,Bedford-Nostrand Avs (G),Brooklyn,40.689627,-73.953522,494550
2023Q1,290,Classon Av (G),Brooklyn,40.688873,-73.96007,338021
2023Q1,291,Clinton-Washington Avs (G),Brooklyn,40.688089,-73.966839,321326
2023Q1,292,Fulton St (G),Brooklyn,40.687119,-73.975375,396800
2023Q1,293,Van Cortlandt Park-242 St (1),Bronx,40.889248,-73.898583,351862
2023Q1,294,238 St (1),Bronx,40.884667,-73.90087,241750
2023Q1,295,231 St (1),Bronx,40.878856,-73.904834,492716
2023Q1,296,Marble Hill-225 St (1),Manhattan,40.874561,-73.909831,281016
2023Q1,297,215 St (1),Manhattan,40.869444,-73.915279,114194
2023Q1,298,207 St (1),Manhattan,40.864621,-73.918822,360628
2023Q1,299,Dyckman St (1),Manhattan,40.860531,-73.925536,390919
2023Q1,3,"30 Av (N,W)",Queens,40.766779,-73.921479,746114
2023Q1,30,Prospect Av (R),Brooklyn,40.665414,-73.992872,328828
2023Q1,300,191 St (1),Manhattan,40.855225,-73.929412,439462
2023Q1,301,181 St (1),Manhattan,40.849505,-73.933596,611956
2023Q1,303,157 St (1),Manhattan,40.834041,-73.94489,596020
2023Q1,304,145 St (1),Manhattan,40.826551,-73.95036,545202
2023Q1,305,137 St-City College (1),Manhattan,40.822008,-73.953676,699241
2023Q1,306,125 St (1),Manhattan,40.815581,-73.958372,489334
2023Q1,307,116 St-Columbia University (1),Manhattan,40.807722,-73.96411,848197
2023Q1,308,Cathedral Pkwy (110 St) (1),Manhattan,40.803967,-73.966847,712167
2023Q1,309,103 St (1),Manhattan,40.799446,-73.968379,698273
2023Q1,31,25 St (R),Brooklyn,40.660397,-73.998091,202621
2023Q1,310,"96 St (1,2,3)",Manhattan,40.793919,-73.972323,1925902
2023Q1,311,86 St (1),Manhattan,40.788644,-73.976218,979173
2023Q1,312,79 St (1),Manhattan,40.783934,-73.979917,841612
2023Q1,313,"72 St (1,2,3)",Manhattan,40.778453,-73.98197,2159010
2023Q1,314,66 St-Lincoln Center (1),Manhattan,40.77344,-73.982209,1172547
2023Q1,316,50 St (1),Manhattan,40.761728,-73.983849,1399492
2023Q1,318,"34 St-Penn Station (1,2,3)",Manhattan,40.750373,-73.991057,3638992
2023Q1,319,28 St (1),Manhattan,40.747215,-73.993365,735932
2023Q1,32,"36 St (D,N,R)",Brooklyn,40.655144,-74.003549,846022
2023Q1,320,23 St (1),Manhattan,40.744081,-73.995657,751793
2023Q1,321,18 St (1),Manhattan,40.74104,-73.997871,430985
2023Q1,323,Christopher St-Sheridan Sq (1),Manhattan,40.733422,-74.002906,643513
2023Q1,324,Houston St (1),Manhattan,40.728251,-74.005367,665583
2023Q1,325,Canal St (1),Manhattan,40.722854,-74.006277,270260
2023Q1,326,Franklin St (1),Manhattan,40.719318,-74.006886,313185
2023Q1,327,"Chambers St (1,2,3)",Manhattan,40.715478,-74.009266,936924
2023Q1,328,WTC Cortlandt (1),Manhattan,40.711835,-74.012188,653980
2023Q1,329,Rector St (1),Manhattan,40.707513,-74.013783,373437
2023Q1,33,45 St (R),Brooklyn,40.648939,-74.010006,466259
2023Q1,333,"Wall St (2,3)",Manhattan,40.706821,-74.0091,885590
2023Q1,334,"Clark St (2,3)",Brooklyn,40.697466,-73.993086,337067
2023Q1,336,"Hoyt St (2,3)",Brooklyn,40.690545,-73.985065,401190
2023Q1,337,"Nevins St (2,3,4,5)",Brooklyn,40.688246,-73.980492,512280
2023Q1,339,"Bergen St (2,3)",Brooklyn,40.680829,-73.975098,243357
2023Q1,34,53 St (R),Brooklyn,40.645069,-74.014034,508657
2023Q1,340,"Grand Army Plaza (2,3)",Brooklyn,40.675235,-73.971046,397018
2023Q1,341,"Eastern Pkwy-Brooklyn Museum (2,3)",Brooklyn,40.671987,-73.964375,267686
2023Q1,343,Nostrand Av (3),Brooklyn,40.669847,-73.950466,201315
2023Q1,344,Kingston Av (3),Brooklyn,40.669399,-73.942161,254641
2023Q1,345,"Crown Hts-Utica Av (3,4)",Brooklyn,40.668897,-73.932942,1267288
2023Q1,346,Sutter Av-Rutland Rd (3),Brooklyn,40.664717,-73.92261,325950
2023Q1,347,Saratoga Av (3),Brooklyn,40.661453,-73.916327,243524
2023Q1,348,Rockaway Av (3),Brooklyn,40.662549,-73.908946,221164
2023Q1,349,Junius St (3),Brooklyn,40.663515,-73.902447,126775
2023Q1,35,"59 St (N,R)",Brooklyn,40.641362,-74.017881,702345
2023Q1,350,Pennsylvania Av (3),Brooklyn,40.664635,-73.894895,220531
2023Q1,351,Van Siclen Av (3),Brooklyn,40.665449,-73.889395,124256
2023Q1,352,New Lots Av (3),Brooklyn,40.666235,-73.884079,278204
2023Q1,353,"President St-Medgar Evers College (2,5)",Brooklyn,40.667883,-73.950683,193238
2023Q1,354,"Sterling St (2,5)",Brooklyn,40.662742,-73.95085,304655
2023Q1,355,"Winthrop St (2,5)",Brooklyn,40.656652,-73.9502,401483
2023Q1,356,"Church Av (2,5)",Brooklyn,40.650843,-73.949575,492291
2023Q1,357,"Beverly Rd (2,5)",Brooklyn,40.645098,-73.948959,235321
2023Q1,358,"Newkirk Av-Little Haiti (2,5)",Brooklyn,40.639967,-73.948411,363398
2023Q1,359,"Flatbush Av-Brooklyn College (2,5)",Brooklyn,40.632836,-73.947642,928064
2023Q1,36,Bay Ridge Av (R),Brooklyn,40.634967,-74.023377,437281
2023Q1,360,Pelham Bay Park (6),Bronx,40.852462,-73.828121,308989
2023Q1,361,Buhre Av (6),Bronx,40.84681,-73.832569,197887
2023Q1,362,Middletown Rd (6),Bronx,40.843863,-73.836322,101938
2023Q1,363,Westchester Sq-E Tremont Av (6),Bronx,40.839892,-73.842952,266320
2023Q1,364,Zerega Av (6),Bronx,40.836488,-73.847036,124897
2023Q1,365,Castle Hill Av (6),Bronx,40.834255,-73.851222,296224
2023Q1,366,Parkchester (6),Bronx,40.833226,-73.860816,810755
2023Q1,367,St Lawrence Av (6),Bronx,40.831509,-73.867618,209829
2023Q1,368,Morrison Av-Soundview (6),Bronx,40.829521,-73.874516,316711
2023Q1,369,Elder Av (6),Bronx,40.828584,-73.879159,322474
2023Q1,37,77 St (R),Brooklyn,40.629742,-74.02551,289103
2023Q1,370,Whitlock Av (6),Bronx,40.826525,-73.886283,99261
2023Q1,371,Hunts Point Av (6),Bronx,40.820948,-73.890549,542500
2023Q1,372,Longwood Av (6),Bronx,40.816104,-73.896435,181171
2023Q1,373,E 149 St (6),Bronx,40.812118,-73.904098,253782
2023Q1,374,E 143 St-St Mary's St (6),Bronx,40.808719,-73.907657,71366
2023Q1,375,Cypress Av (6),Bronx,40.805368,-73.914042,126128
2023Q1,376,Brook Av (6),Bronx,40.807566,-73.91924,278875
2023Q1,377,3 Av-138 St (6),Bronx,40.810476,-73.926138,437916
2023Q1,378,Woodlawn (4),Bronx,40.886037,-73.878751,327689
2023Q1,379,Mosholu Pkwy (4),Bronx,40.87975,-73.884655,439391
2023Q1,38,86 St (R),Brooklyn,40.622687,-74.028398,650130
2023Q1,380,Bedford Park Blvd-Lehman College (4),Bronx,40.873412,-73.890064,301263
2023Q1,381,Kingsbridge Rd (4),Bronx,40.86776,-73.897174,496940
2023Q1,382,Fordham Rd (4),Bronx,40.862803,-73.901034,559675
2023Q1,383,183 St (4),Bronx,40.858407,-73.903879,302960
2023Q1,384,Burnside Av (4),Bronx,40.853453,-73.907684,469571
2023Q1,385,176 St (4),Bronx,40.84848,-73.911794,270154
2023Q1,386,Mt Eden Av (4),Bronx,40.844434,-73.914685,253774
2023Q1,387,170 St (4),Bronx,40.840075,-73.917791,378725
2023Q1,388,167 St (4),Bronx,40.835537,-73.9214,499431
2023Q1,39,Bay Ridge-95 St (R),Brooklyn,40.616622,-74.030876,295985
2023Q1,391,"138 St-Grand Concourse (4,5)",Bronx,40.813224,-73.929849,189718
2023Q1,392,"125 St (4,5,6)",Manhattan,40.804138,-73.937594,1196794
2023Q1,393,116 St (6),Manhattan,40.798629,-73.941617,726896
2023Q1,394,110 St (6),Manhattan,40.79502,-73.94425,541072
2023Q1,395,103 St (6),Manhattan,40.7906,-73.947478,646402
2023Q1,396,96 St (6),Manhattan,40.785672,-73.95107,911183
2023Q1,397,"86 St (4,5,6)",Manhattan,40.779492,-73.955589,2428671
2023Q1,398,77 St (6),Manhattan,40.77362,-73.959874,1436638
2023Q1,399,68 St-Hunter College (6),Manhattan,40.768141,-73.96387,1209189
2023Q1,4,"Broadway (N,W)",Queens,40.76182,-73.925508,674013
2023Q1,403,33 St (6),Manhattan,40.746081,-73.982076,1351409
2023Q1,404,28 St (6),Manhattan,40.74307,-73.984264,1044119
2023Q1,405,23 St (6),Manhattan,40.739864,-73.986599,1363129
2023Q1,407,Astor Pl (6),Manhattan,40.730054,-73.99107,877878
2023Q1,409,Spring St (6),Manhattan,40.722301,-73.997141,657754
2023Q1,41,"7 Av (B,Q)",Brooklyn,40.67705,-73.972367,541363
2023Q1,413,"Wall St (4,5)",Manhattan,40.707557,-74.011862,785095
2023Q1,414,"Bowling Green (4,5)",Manhattan,40.704817,-74.014065,1142809
2023Q1,416,Wakefield-241 St (2),Bronx,40.903125,-73.85062,216038
2023Q1,417,"Nereid Av (2,5)",Bronx,40.898379,-73.854376,151304
2023Q1,418,"233 St (2,5)",Bronx,40.893193,-73.857473,214685
2023Q1,419,"225 St (2,5)",Bronx,40.888022,-73.860341,150631
2023Q1,42,"Prospect Park (B,Q,S)",Brooklyn,40.661614,-73.962246,523443
2023Q1,420,"219 St (2,5)",Bronx,40.883895,-73.862633,127235
2023Q1,421,"Gun Hill Rd (2,5)",Bronx,40.87785,-73.866256,296825
2023Q1,422,"Burke Av (2,5)",Bronx,40.871356,-73.867164,135443
2023Q1,423,"Allerton Av (2,5)",Bronx,40.865462,-73.867352,225480
2023Q1,424,"Pelham Pkwy (2,5)",Bronx,40.857192,-73.867615,361323
2023Q1,425,"Bronx Park East (2,5)",Bronx,40.848828,-73.868457,116603
2023Q1,426,"E 180 St (2,5)",Bronx,40.841894,-73.873488,413133
2023Q1,427,"West Farms Sq-E Tremont Av (2,5)",Bronx,40.840295,-73.880049,252794
2023Q1,428,"174 St (2,5)",Bronx,40.837288,-73.887734,299332
2023Q1,429,"Freeman St (2,5)",Bronx,40.829993,-73.891865,208957
2023Q1,43,Parkside Av (Q),Brooklyn,40.655292,-73.961495,352098
2023Q1,430,"Simpson St (2,5)",Bronx,40.824073,-73.893064,343713
2023Q1,431,"Intervale Av (2,5)",Bronx,40.822181,-73.896736,150303
2023Q1,432,"Prospect Av (2,5)",Bronx,40.819585,-73.90177,318559
2023Q1,433,"Jackson Av (2,5)",Bronx,40.81649,-73.907807,235199
2023Q1,434,"3 Av-149 St (2,5)",Bronx,40.816109,-73.917757,807970
2023Q1,436,Harlem-148 St (3),Manhattan,40.82388,-73.93647,178252
2023Q1,437,145 St (3),Manhattan,40.820421,-73.936245,148336
2023Q1,438,"135 St (2,3)",Manhattan,40.814229,-73.94077,561248
2023Q1,439,"125 St (2,3)",Manhattan,40.807754,-73.945495,662837
2023Q1,44,"Church Av (B,Q)",Brooklyn,40.650527,-73.962982,803994
2023Q1,440,"116 St (2,3)",Manhattan,40.802098,-73.949625,503710
2023Q1,441,"Central Park North (110 St) (2,3)",Manhattan,40.799075,-73.951822,407884
2023Q1,442,Eastchester-Dyre Av (5),Bronx,40.8883,-73.830834,198966
2023Q1,443,Baychester Av (5),Bronx,40.878663,-73.838591,145009
2023Q1,444,Gun Hill Rd (5),Bronx,40.869526,-73.846384,244016
2023Q1,445,Pelham Pkwy (5),Bronx,40.858985,-73.855359,144032
2023Q1,446,Morris Park (5),Bronx,40.854364,-73.860495,130319
2023Q1,447,Flushing-Main St (7),Queens,40.7596,-73.83003,3100969
2023Q1,448,Mets-Willets Point (7),Queens,40.754622,-73.845625,230061
2023Q1,449,111 St (7),Queens,40.75173,-73.855334,711757
2023Q1,45,Beverley Rd (Q),Brooklyn,40.644031,-73.964492,203008
2023Q1,450,103 St-Corona Plaza (7),Queens,40.749865,-73.8627,1452226
2023Q1,451,Junction Blvd (7),Queens,40.749145,-73.869527,1586668
2023Q1,452,90 St-Elmhurst Av (7),Queens,40.748408,-73.876613,1046852
2023Q1,453,82 St-Jackson Hts (7),Queens,40.747659,-73.883697,1030636
2023Q1,455,69 St (7),Queens,40.746325,-73.896403,329321
2023Q1,456,61 St-Woodside (7),Queens,40.74563,-73.902984,1046612
2023Q1,457,52 St (7),Queens,40.744149,-73.912549,341814
2023Q1,458,46 St-Bliss St (7),Queens,40.743132,-73.918435,691540
2023Q1,459,40 St-Lowery St (7),Queens,40.743781,-73.924016,531178
2023Q1,46,Cortelyou Rd (Q),Brooklyn,40.640927,-73.963891,330997
2023Q1,460,33 St-Rawson St (7),Queens,40.744587,-73.930997,429467
2023Q1,461,"Queensboro Plaza (7,N,W)",Queens,40.750582,-73.940202,1717072
2023Q1,463,Hunters Point Av (7),Queens,40.742216,-73.948916,264822
2023Q1,464,Vernon Blvd-Jackson Av (7),Queens,40.742626,-73.953581,814173
2023Q1,47,"Newkirk Plaza (B,Q)",Brooklyn,40.635082,-73.962793,546852
2023Q1,471,34 St-Hudson Yards (7),Manhattan,40.755882,-74.00191,1115120
2023Q1,475,96 St (Q),Manhattan,40.784318,-73.947152,978357
2023Q1,476,86 St (Q),Manhattan,40.777891,-73.951787,1364547
2023Q1,477,72 St (Q),Manhattan,40.768799,-73.958424,1626368
2023Q1,48,Avenue H (Q),Brooklyn,40.62927,-73.961639,169973
2023Q1,49,Avenue J (Q),Brooklyn,40.625039,-73.960803,307456
2023Q1,5,"36 Av (N,W)",Queens,40.756804,-73.929575,352528
2023Q1,50,Avenue M (Q),Brooklyn,40.617618,-73.959399,319572
2023Q1,501,St George (SIR),Staten Island,40.643748,-74.073643,463418
2023Q1,502,Tompkinsville (SIR),Staten Island,40.636949,-74.074835,36335
2023Q1,51,"Kings Hwy (B,Q)",Brooklyn,40.60867,-73.957734,1075977
2023Q1,52,Avenue U (Q),Brooklyn,40.5993,-73.955929,400989
2023Q1,53,Neck Rd (Q),Brooklyn,40.595246,-73.955161,243069
2023Q1,54,"Sheepshead Bay (B,Q)",Brooklyn,40.586896,-73.954155,697820
2023Q1,55,"Brighton Beach (B,Q)",Brooklyn,40.577621,-73.961376,620362
2023Q1,56,Ocean Pkwy (Q),Brooklyn,40.576312,-73.968501,184569
2023Q1,57,"W 8 St-NY Aquarium (F,Q)",Brooklyn,40.576127,-73.975939,118840
2023Q1,58,"Coney Island-Stillwell Av (D,F,N,Q)",Brooklyn,40.577422,-73.981233,679225
2023Q1,59,9 Av (D),Brooklyn,40.646292,-73.994324,309848
2023Q1,6,"39 Av-Dutch Kills (N,W)",Queens,40.752882,-73.932755,181871
2023Q1,60,Fort Hamilton Pkwy (D),Brooklyn,40.640914,-73.994304,222425
2023Q1,601,"14 St (F,M,1,2,3)/6 Av (L)",Manhattan,40.737335,-73.996786,2584701
2023Q1,601,"14 St (F,M,1,2,3)/6 Av (L)",Manhattan,40.737826,-74.000201,2584701
2023Q1,601,"14 St (F,M,1,2,3)/6 Av (L)",Manhattan,40.738228,-73.996209,2584701
2023Q1,602,"14 St-Union Sq (L,N,Q,R,W,4,5,6)",Manhattan,40.734673,-73.989951,5006547
2023Q1,602,"14 St-Union Sq (L,N,Q,R,W,4,5,6)",Manhattan,40.734789,-73.99073,5006547
2023Q1,602,"14 St-Union Sq (L,N,Q,R,W,4,5,6)",Manhattan,40.735736,-73.990568,5006547
2023Q1,603,"149 St-Grand Concourse (2,4,5)",Bronx,40.818375,-73.927351,526523
2023Q1,603,"149 St-Grand Concourse (2,4,5)",Bronx,40.81841,-73.926718,526523
2023Q1,604,"161 St-Yankee Stadium (B,D,4)",Bronx,40.827905,-73.925651,1053988
2023Q1,604,"161 St-Yankee Stadium (B,D,4)",Bronx,40.827994,-73.925831,1053988
2023Q1,605,"168 St (A,C,1)",Manhattan,40.840556,-73.940133,1283780
2023Q1,605,"168 St (A,C,1)",Manhattan,40.840719,-73.939561,1283780
2023Q1,606,"Court Sq (E,G,M,7)",Queens,40.746554,-73.943832,1255420
2023Q1,606,"Court Sq (E,G,M,7)",Queens,40.747023,-73.945264,1255420
2023Q1,606,"Court Sq (E,G,M,7)",Queens,40.747846,-73.946,1255420
2023Q1,607,"34 St-Herald Sq (B,D,F,M,N,Q,R,W)",Manhattan,40.749567,-73.98795,5539601
2023Q1,607,"34 St-Herald Sq (B,D,F,M,N,Q,R,W)",Manhattan,40.749719,-73.987823,5539601
2023Q1,608,"4 Av (F,G)/9 St (R)",Brooklyn,40.670272,-73.989779,705538
2023Q1,608,"4 Av (F,G)/9 St (R)",Brooklyn,40.670847,-73.988302,705538
2023Q1,609,"Bryant Pk (B,D,F,M)/5 Av (7)",Manhattan,40.753821,-73.981963,2422901
2023Q1,609,"Bryant Pk (B,D,F,M)/5 Av (7)",Manhattan,40.754222,-73.984569,2422901
2023Q1,61,50 St (D),Brooklyn,40.63626,-73.994791,191497
2023Q1,610,"Grand Central-42 St (S,4,5,6,7)",Manhattan,40.751431,-73.976041,6831146
2023Q1,610,"Grand Central-42 St (S,4,5,6,7)",Manhattan,40.751776,-73.976848,6831146
2023Q1,610,"Grand Central-42 St (S,4,5,6,7)",Manhattan,40.752769,-73.979189,6831146
2023Q1,611,"Times Sq-42 St (N,Q,R,W,S,1,2,3,7)/42 St (A,C,E)",Manhattan,40.754672,-73.986754,9659177
2023Q1,611,"Times Sq-42 St (N,Q,R,W,S,1,2,3,7)/42 St (A,C,E)",Manhattan,40.75529,-73.987495,9659177
2023Q1,611,"Times Sq-42 St (N,Q,R,W,S,1,2,3,7)/42 St (A,C,E)",Manhattan,40.755477,-73.987691,9659177
2023Q1,611,"Times Sq-42 St (N,Q,R,W,S,1,2,3,7)/42 St (A,C,E)",Manhattan,40.755983,-73.986229,9659177
2023Q1,611,"Times Sq-42 St (N,Q,R,W,S,1,2,3,7)/42 St (A,C,E)",Manhattan,40.757308,-73.989735,9659177
2023Q1,612,"Lexington Av-53 St (E,M)/51 St (6)",Manhattan,40.757107,-73.97192,2702221
2023Q1,612,"Lexington Av-53 St (E,M)/51 St (6)",Manhattan,40.757552,-73.969055,2702221
2023Q1,613,"Lexington Av (N,R,W)/59 St (4,5,6)",Manhattan,40.762526,-73.967967,2679021
2023Q1,613,"Lexington Av (N,R,W)/59 St (4,5,6)",Manhattan,40.76266,-73.967258,2679021
2023Q1,614,"59 St-Columbus Circle (A,B,C,D,1)",Manhattan,40.768247,-73.981929,3688491
2023Q1,614,"59 St-Columbus Circle (A,B,C,D,1)",Manhattan,40.768296,-73.981736,3688491
2023Q1,615,New Utrecht Av (N)/62 St (D),Brooklyn,40.624842,-73.996353,307358
2023Q1,615,New Utrecht Av (N)/62 St (D),Brooklyn,40.626472,-73.996895,307358
2023Q1,616,"74-Broadway (7)/Jackson Hts-Roosevelt Av (E,F,M,R)",Queens,40.746644,-73.891338,3174045
2023Q1,616,"74-Broadway (7)/Jackson Hts-Roosevelt Av (E,F,M,R)",Queens,40.746848,-73.891394,3174045
2023Q1,617,"Atlantic Av-Barclays Ctr (B,D,N,Q,R,2,3,4,5)",Brooklyn,40.683666,-73.97881,2410580
2023Q1,617,"Atlantic Av-Barclays Ctr (B,D,N,Q,R,2,3,4,5)",Brooklyn,40.684359,-73.977666,2410580
2023Q1,617,"Atlantic Av-Barclays Ctr (B,D,N,Q,R,2,3,4,5)",Brooklyn,40.68446,-73.97689,2410580
2023Q1,618,"14 St (A,C,E)/8 Av (L)",Manhattan,40.739777,-74.002578,2487860
2023Q1,618,"14 St (A,C,E)/8 Av (L)",Manhattan,40.740893,-74.00169,2487860
2023Q1,619,"Broadway-Lafayette St (B,D,F,M)/Bleecker St (6)",Manhattan,40.725297,-73.996204,2105586
2023Q1,619,"Broadway-Lafayette St (B,D,F,M)/Bleecker St (6)",Manhattan,40.725915,-73.994659,2105586
2023Q1,62,55 St (D),Brooklyn,40.631435,-73.995476,106737
2023Q1,620,"Court St (R)/Borough Hall (2,3,4,5)",Brooklyn,40.692404,-73.990151,1534658
2023Q1,620,"Court St (R)/Borough Hall (2,3,4,5)",Brooklyn,40.693219,-73.989998,1534658
2023Q1,620,"Court St (R)/Borough Hall (2,3,4,5)",Brooklyn,40.6941,-73.991777,1534658
2023Q1,621,"Broadway Junction (A,C,J,L,Z)",Brooklyn,40.678334,-73.905316,422860
2023Q1,621,"Broadway Junction (A,C,J,L,Z)",Brooklyn,40.678856,-73.90324,422860
2023Q1,621,"Broadway Junction (A,C,J,L,Z)",Brooklyn,40.679498,-73.904512,422860
2023Q1,622,"Brooklyn Bridge-City Hall (4,5,6)/Chambers St (J,Z)",Manhattan,40.713065,-74.004131,1368952
2023Q1,622,"Brooklyn Bridge-City Hall (4,5,6)/Chambers St (J,Z)",Manhattan,40.713243,-74.003401,1368952
2023Q1,623,"Canal St (J,N,Q,R,W,Z,6)",Manhattan,40.718092,-73.999892,2392532
2023Q1,623,"Canal St (J,N,Q,R,W,Z,6)",Manhattan,40.718383,-74.00046,2392532
2023Q1,623,"Canal St (J,N,Q,R,W,Z,6)",Manhattan,40.718803,-74.000193,2392532
2023Q1,623,"Canal St (J,N,Q,R,W,Z,6)",Manhattan,40.719527,-74.001775,2392532
2023Q1,624,"Chambers St (A,C)/WTC (E)/Park Pl (2,3)/Cortlandt (R,W)",Manhattan,40.710668,-74.011029,2758298
2023Q1,624,"Chambers St (A,C)/WTC (E)/Park Pl (2,3)/Cortlandt (R,W)",Manhattan,40.712582,-74.009781,2758298
2023Q1,624,"Chambers St (A,C)/WTC (E)/Park Pl (2,3)/Cortlandt (R,W)",Manhattan,40.713051,-74.008811,2758298
2023Q1,624,"Chambers St (A,C)/WTC (E)/Park Pl (2,3)/Cortlandt (R,W)",Manhattan,40.714111,-74.008585,2758298
2023Q1,625,"Delancey St (F)/Essex St (J,M,Z)",Manhattan,40.718315,-73.987437,1677269
2023Q1,625,"Delancey St (F)/Essex St (J,M,Z)",Manhattan,40.718611,-73.988114,1677269
2023Q1,626,"Franklin Av (2,3,4,5)/Botanic Garden (S)",Brooklyn,40.670343,-73.959245,802670
2023Q1,626,"Franklin Av (2,3,4,5)/Botanic Garden (S)",Brooklyn,40.670682,-73.958131,802670
2023Q1,627,"Franklin Av (C,S)",Brooklyn,40.680596,-73.955827,298918
2023Q1,627,"Franklin Av (C,S)",Brooklyn,40.68138,-73.956848,298918
2023Q1,628,"Fulton St (A,C,J,Z,2,3,4,5)",Manhattan,40.709416,-74.006571,4064258
2023Q1,628,"Fulton St (A,C,J,Z,2,3,4,5)",Manhattan,40.710197,-74.007691,4064258
2023Q1,628,"Fulton St (A,C,J,Z,2,3,4,5)",Manhattan,40.710368,-74.009509,4064258
2023Q1,628,"Fulton St (A,C,J,Z,2,3,4,5)",Manhattan,40.710374,-74.007582,4064258
2023Q1,629,Lorimer St (L)/Metropolitan Av (G),Brooklyn,40.712792,-73.951418,944863
2023Q1,629,Lorimer St (L)/Metropolitan Av (G),Brooklyn,40.714063,-73.950275,944863
2023Q1,630,"Myrtle-Wyckoff Avs (L,M)",Brooklyn,40.69943,-73.912385,1265507
2023Q1,630,"Myrtle-Wyckoff Avs (L,M)",Brooklyn,40.699814,-73.911586,1265507
2023Q1,635,"South Ferry (1)/Whitehall St (R,W)",Manhattan,40.702068,-74.013664,1290081
2023Q1,635,"South Ferry (1)/Whitehall St (R,W)",Manhattan,40.703087,-74.012994,1290081
2023Q1,636,"Jay St-MetroTech (A,C,F,R)",Brooklyn,40.69218,-73.985942,1819657
2023Q1,636,"Jay St-MetroTech (A,C,F,R)",Brooklyn,40.692338,-73.987342,1819657
2023Q1,64,71 St (D),Brooklyn,40.619589,-73.998864,253449
2023Q1,65,79 St (D),Brooklyn,40.613501,-74.00061,316997
2023Q1,66,18 Av (D),Brooklyn,40.607954,-74.001736,321574
2023Q1,67,20 Av (D),Brooklyn,40.604556,-73.998168,267875
2023Q1,68,Bay Pkwy (D),Brooklyn,40.601875,-73.993728,433080
2023Q1,69,25 Av (D),Brooklyn,40.597704,-73.986829,241261
2023Q1,70,Bay 50 St (D),Brooklyn,40.588841,-73.983765,148776
2023Q1,71,8 Av (N),Brooklyn,40.635064,-74.011719,634245
2023Q1,72,Fort Hamilton Pkwy (N),Brooklyn,40.631386,-74.005351,379873
2023Q1,74,18 Av (N),Brooklyn,40.620671,-73.990414,309856
2023Q1,75,20 Av (N),Brooklyn,40.61741,-73.985026,233637
2023Q1,76,Bay Pkwy (N),Brooklyn,40.611815,-73.981848,406648
2023Q1,77,Kings Hwy (N),Brooklyn,40.603923,-73.980353,316525
2023Q1,78,Avenue U (N),Brooklyn,40.597473,-73.979137,209011
2023Q1,79,86 St (N),Brooklyn,40.592721,-73.97823,136235
2023Q1,8,"5 Av/59 St (N,R,W)",Manhattan,40.764811,-73.973347,754654
2023Q1,80,"121 St (J,Z)",Queens,40.700492,-73.828294,123521
2023Q1,81,111 St (J),Queens,40.697418,-73.836345,117442
2023Q1,82,"104 St (J,Z)",Queens,40.695178,-73.84433,142917
2023Q1,83,"Woodhaven Blvd (J,Z)",Queens,40.693879,-73.851576,197660
2023Q1,84,85 St-Forest Pkwy (J),Queens,40.692435,-73.86001,195986
2023Q1,85,"75 St-Elderts Ln (J,Z)",Queens,40.691324,-73.867139,139560
2023Q1,86,Cypress Hills (J),Brooklyn,40.689941,-73.87255,73466
2023Q1,87,"Crescent St (J,Z)",Brooklyn,40.683194,-73.873785,195370
2023Q1,88,"Norwood Av (J,Z)",Brooklyn,40.68141,-73.880039,127017
2023Q1,89,Cleveland St (J),Brooklyn,40.679947,-73.884639,121150
2023Q1,9,"57 St-7 Av (N,Q,R,W)",Manhattan,40.764664,-73.980658,1781177
2023Q1,90,"Van Siclen Av (J,Z)",Brooklyn,40.678024,-73.891688,132272
2023Q1,91,Alabama Av (J),Brooklyn,40.676992,-73.898654,100738
2023Q1,93,"Chauncey St (J,Z)",Brooklyn,40.682893,-73.910456,157073
2023Q1,94,Halsey St (J),Brooklyn,40.68637,-73.916559,305122
2023Q1,95,"Gates Av (J,Z)",Brooklyn,40.68963,-73.92227,363792
2023Q1,96,Kosciuszko St (J),Brooklyn,40.693342,-73.928814,283186
2023Q1,97,"Myrtle Av (M,J,Z)",Brooklyn,40.697207,-73.935657,625031
2023Q1,98,"Flushing Av (M,J)",Brooklyn,40.70026,-73.941126,409912
2023Q1,99,"Lorimer St (M,J)",Brooklyn,40.703869,-73.947408,231993
2023Q1,TRAM1,RI Tramway (Manhattan),Manhattan,40.761338,-73.964155,265945
2023Q1,TRAM2,RI Tramway (Roosevelt),Manhattan,40.75734,-73.954114,238445
2023Q2,1,"Astoria-Ditmars Blvd (N,W)",Queens,40.775036,-73.912034,821922
2023Q2,10,"49 St (N,R,W)",Manhattan,40.759901,-73.984139,1382741
2023Q2,100,"Hewes St (M,J)",Brooklyn,40.70687,-73.953431,153055
2023Q2,101,"Marcy Av (M,J,Z)",Brooklyn,40.708359,-73.957757,745368
2023Q2,103,"Bowery (J,Z)",Manhattan,40.72028,-73.993915,234746
2023Q2,107,"Broad St (J,Z)",Manhattan,40.706476,-74.011056,318990
2023Q2,108,Middle Village-Metropolitan Av (M),Queens,40.711396,-73.889601,205781
2023Q2,109,Fresh Pond Rd (M),Queens,40.706186,-73.895877,309469
2023Q2,110,Forest Av (M),Queens,40.704423,-73.903077,230044
2023Q2,111,Seneca Av (M),Queens,40.702762,-73.90774,154081
2023Q2,113,Knickerbocker Av (M),Brooklyn,40.698664,-73.919711,215017
2023Q2,114,Central Av (M),Brooklyn,40.697857,-73.927397,204656
2023Q2,118,3 Av (L),Manhattan,40.732849,-73.986122,399209
2023Q2,119,1 Av (L),Manhattan,40.730953,-73.981628,1526547
2023Q2,120,Bedford Av (L),Brooklyn,40.717304,-73.956872,2284426
2023Q2,122,Graham Av (L),Brooklyn,40.714565,-73.944053,568666
2023Q2,123,Grand St (L),Brooklyn,40.711926,-73.94067,393835
2023Q2,124,Montrose Av (L),Brooklyn,40.707739,-73.93985,445681
2023Q2,125,Morgan Av (L),Brooklyn,40.706152,-73.933147,463302
2023Q2,126,Jefferson St (L),Brooklyn,40.706607,-73.922913,558949
2023Q2,127,DeKalb Av (L),Brooklyn,40.703811,-73.918425,736354
2023Q2,129,Halsey St (L),Queens,40.695602,-73.904084,438450
2023Q2,13,"28 St (R,W)",Manhattan,40.745494,-73.988691,681911
2023Q2,130,Wilson Av (L),Brooklyn,40.688764,-73.904046,254603
2023Q2,131,Bushwick Av-Aberdeen St (L),Brooklyn,40.682829,-73.905249,144434
2023Q2,133,Atlantic Av (L),Brooklyn,40.675345,-73.903097,92781
2023Q2,134,Sutter Av (L),Brooklyn,40.669367,-73.901975,130836
2023Q2,135,Livonia Av (L),Brooklyn,40.664038,-73.900571,164865
2023Q2,136,New Lots Av (L),Brooklyn,40.658733,-73.899232,191702
2023Q2,137,East 105 St (L),Brooklyn,40.650573,-73.899485,162747
2023Q2,138,Canarsie-Rockaway Pkwy (L),Brooklyn,40.646654,-73.90185,190647
2023Q2,14,"23 St (R,W)",Manhattan,40.741303,-73.989344,1084636
2023Q2,141,Park Pl (S),Brooklyn,40.674772,-73.957624,88613
2023Q2,143,Inwood-207 St (A),Manhattan,40.868072,-73.919899,395197
2023Q2,144,Dyckman St (A),Manhattan,40.865491,-73.927271,301229
2023Q2,145,190 St (A),Manhattan,40.859022,-73.93418,232812
2023Q2,146,181 St (A),Manhattan,40.851695,-73.937969,391469
2023Q2,147,175 St (A),Manhattan,40.847391,-73.939704,531930
2023Q2,149,163 St-Amsterdam Av (C),Manhattan,40.836013,-73.939892,215502
2023Q2,150,155 St (C),Manhattan,40.830518,-73.941514,136922
2023Q2,151,"145 St (A,C,B,D)",Manhattan,40.824783,-73.944216,2367742
2023Q2,152,"135 St (C,B)",Manhattan,40.817894,-73.947649,275116
2023Q2,153,"125 St (A,C,B,D)",Manhattan,40.811109,-73.952343,1448967
2023Q2,154,"116 St (C,B)",Manhattan,40.805085,-73.954882,387367
2023Q2,155,"Cathedral Pkwy (110 St) (C,B)",Manhattan,40.800603,-73.958161,448600
2023Q2,156,"103 St (C,B)",Manhattan,40.796092,-73.961454,272623
2023Q2,157,"96 St (C,B)",Manhattan,40.791642,-73.964696,555488
2023Q2,158,"86 St (C,B)",Manhattan,40.785868,-73.968916,657142
2023Q2,159,"81 St-Museum of Natural History (C,B)",Manhattan,40.781433,-73.972143,920061
2023Q2,16,"8 St-NYU (R,W)",Manhattan,40.730328,-73.992629,943273
2023Q2,160,"72 St (C,B)",Manhattan,40.775594,-73.97641,627983
2023Q2,162,"50 St (C,E)",Manhattan,40.762456,-73.985984,1228730
2023Q2,164,"34 St-Penn Station (A,C,E)",Manhattan,40.752287,-73.993391,4178783
2023Q2,165,"23 St (C,E)",Manhattan,40.745906,-73.998041,1131510
2023Q2,167,"W 4 St-Wash Sq (A,C,E,B,D,F,M)",Manhattan,40.732338,-74.000495,5209708
2023Q2,168,"Spring St (C,E)",Manhattan,40.726227,-74.003739,753023
2023Q2,169,"Canal St (A,C,E)",Manhattan,40.720824,-74.005229,1008422
2023Q2,17,"Prince St (R,W)",Manhattan,40.724329,-73.997702,791445
2023Q2,173,"High St (A,C)",Brooklyn,40.699337,-73.990531,591096
2023Q2,175,"Hoyt-Schermerhorn Sts (A,C,G)",Brooklyn,40.688484,-73.985001,710386
2023Q2,176,Lafayette Av (C),Brooklyn,40.686113,-73.973946,327621
2023Q2,177,Clinton-Washington Avs (C),Brooklyn,40.683263,-73.965838,416037
2023Q2,179,"Nostrand Av (A,C)",Brooklyn,40.680438,-73.950426,966477
2023Q2,180,Kingston-Throop Avs (C),Brooklyn,40.679921,-73.940858,374897
2023Q2,181,"Utica Av (A,C)",Brooklyn,40.679364,-73.930729,772972
2023Q2,182,Ralph Av (C),Brooklyn,40.678822,-73.920786,281127
2023Q2,183,Rockaway Av (C),Brooklyn,40.67834,-73.911946,291964
2023Q2,185,Liberty Av (C),Brooklyn,40.674542,-73.896548,127642
2023Q2,186,Van Siclen Av (C),Brooklyn,40.67271,-73.890358,135002
2023Q2,187,Shepherd Av (C),Brooklyn,40.67413,-73.88075,148492
2023Q2,188,"Euclid Av (A,C)",Brooklyn,40.675377,-73.872106,551679
2023Q2,189,Grant Av (A),Brooklyn,40.677044,-73.86505,309620
2023Q2,190,80 St (A),Queens,40.679371,-73.858992,235025
2023Q2,191,88 St (A),Queens,40.679843,-73.85147,150707
2023Q2,192,Rockaway Blvd (A),Queens,40.680429,-73.843853,404361
2023Q2,193,104 St (A),Queens,40.681711,-73.837683,95085
2023Q2,194,111 St (A),Queens,40.684331,-73.832163,121961
2023Q2,195,Ozone Park-Lefferts Blvd (A),Queens,40.685951,-73.825798,346022
2023Q2,196,Aqueduct Racetrack (A),Queens,40.672097,-73.835919,57358
2023Q2,197,Aqueduct-N Conduit Av (A),Queens,40.668234,-73.834058,41830
2023Q2,198,Howard Beach-JFK Airport (A),Queens,40.660476,-73.830301,181233
2023Q2,199,"Broad Channel (A,S)",Queens,40.608382,-73.815925,15303
2023Q2,2,"Astoria Blvd (N,W)",Queens,40.770258,-73.917843,605132
2023Q2,20,"City Hall (R,W)",Manhattan,40.713282,-74.006978,304599
2023Q2,200,"Beach 90 St (A,S)",Queens,40.588034,-73.813641,45225
2023Q2,201,"Beach 98 St (A,S)",Queens,40.585307,-73.820558,24611
2023Q2,202,"Beach 105 St (A,S)",Queens,40.583209,-73.827559,15943
2023Q2,203,"Rockaway Park-Beach 116 St (A,S)",Queens,40.580903,-73.835592,39565
2023Q2,204,Beach 67 St (A),Queens,40.590927,-73.796924,125356
2023Q2,205,Beach 60 St (A),Queens,40.592374,-73.788522,91261
2023Q2,206,Beach 44 St (A),Queens,40.592943,-73.776013,36632
2023Q2,207,Beach 36 St (A),Queens,40.595398,-73.768175,43844
2023Q2,208,Beach 25 St (A),Queens,40.600066,-73.761353,81733
2023Q2,209,Far Rockaway-Mott Av (A),Queens,40.603995,-73.755405,223063
2023Q2,210,Norwood-205 St (D),Bronx,40.874811,-73.878855,343475
2023Q2,211,"Bedford Park Blvd (B,D)",Bronx,40.873244,-73.887138,301318
2023Q2,212,"Kingsbridge Rd (B,D)",Bronx,40.866978,-73.893509,291552
2023Q2,213,"Fordham Rd (B,D)",Bronx,40.861296,-73.897749,499189
2023Q2,214,"182-183 Sts (B,D)",Bronx,40.856093,-73.900741,209075
2023Q2,215,"Tremont Av (B,D)",Bronx,40.85041,-73.905227,314882
2023Q2,216,"174-175 Sts (B,D)",Bronx,40.8459,-73.910136,204602
2023Q2,217,"170 St (B,D)",Bronx,40.839306,-73.9134,262358
2023Q2,218,"167 St (B,D)",Bronx,40.833771,-73.91844,348111
2023Q2,22,"Rector St (R,W)",Manhattan,40.70722,-74.013342,304882
2023Q2,220,"155 St (B,D)",Manhattan,40.830135,-73.938209,151920
2023Q2,221,21 St-Queensbridge (F),Queens,40.754203,-73.942836,562688
2023Q2,222,Roosevelt Island (F),Manhattan,40.759145,-73.95326,546010
2023Q2,223,"Lexington Av/63 St (F,Q)",Manhattan,40.764629,-73.966113,1141740
2023Q2,224,57 St (F),Manhattan,40.763972,-73.97745,895085
2023Q2,225,"47-50 Sts-Rockefeller Ctr (B,D,F,M)",Manhattan,40.758663,-73.981329,2769334
2023Q2,228,"23 St (F,M)",Manhattan,40.742878,-73.992821,1344406
2023Q2,231,"Grand St (B,D)",Manhattan,40.718267,-73.993753,1468171
2023Q2,232,2 Av (F),Manhattan,40.723402,-73.989938,1077357
2023Q2,234,East Broadway (F),Manhattan,40.713715,-73.990173,939727
2023Q2,235,York St (F),Brooklyn,40.701397,-73.986751,872664
2023Q2,236,"Bergen St (F,G)",Brooklyn,40.686145,-73.990862,691521
2023Q2,237,"Carroll St (F,G)",Brooklyn,40.680303,-73.995048,665367
2023Q2,238,"Smith-9 Sts (F,G)",Brooklyn,40.67358,-73.995959,249743
2023Q2,240,"7 Av (F,G)",Brooklyn,40.666271,-73.980305,691911
2023Q2,241,"15 St-Prospect Park (F,G)",Brooklyn,40.660365,-73.979493,364490
2023Q2,242,"Fort Hamilton Pkwy (F,G)",Brooklyn,40.650782,-73.975776,350186
2023Q2,243,"Church Av (F,G)",Brooklyn,40.644041,-73.979678,558931
2023Q2,244,Ditmas Av (F),Brooklyn,40.636119,-73.978172,205867
2023Q2,245,18 Av (F),Brooklyn,40.629755,-73.976971,177247
2023Q2,246,Avenue I (F),Brooklyn,40.625322,-73.976127,93875
2023Q2,247,Bay Pkwy (F),Brooklyn,40.620769,-73.975264,68441
2023Q2,248,Avenue N (F),Brooklyn,40.61514,-73.974197,147789
2023Q2,249,Avenue P (F),Brooklyn,40.608944,-73.973022,132359
2023Q2,250,Kings Hwy (F),Brooklyn,40.603217,-73.972361,172846
2023Q2,251,Avenue U (F),Brooklyn,40.596063,-73.973357,98575
2023Q2,252,Avenue X (F),Brooklyn,40.58962,-73.97425,127245
2023Q2,253,Neptune Av (F),Brooklyn,40.581011,-73.974574,79183
2023Q2,254,Jamaica-179 St (F),Queens,40.712646,-73.783817,1032341
2023Q2,255,169 St (F),Queens,40.71047,-73.793604,416164
2023Q2,256,Parsons Blvd (F),Queens,40.707564,-73.803326,401004
2023Q2,257,Sutphin Blvd (F),Queens,40.70546,-73.810708,233285
2023Q2,258,"Briarwood (E,F)",Queens,40.709179,-73.820574,272149
2023Q2,259,"Kew Gardens-Union Tpke (E,F)",Queens,40.714441,-73.831008,1292505
2023Q2,26,"DeKalb Av (B,Q,R)",Brooklyn,40.690635,-73.981824,1114097
2023Q2,260,"75 Av (E,F)",Queens,40.718331,-73.837324,177438
2023Q2,261,"Forest Hills-71 Av (E,F,M,R)",Queens,40.721691,-73.844521,1447561
2023Q2,262,"67 Av (M,R)",Queens,40.726523,-73.852719,426097
2023Q2,263,"63 Dr-Rego Park (M,R)",Queens,40.729846,-73.861604,794071
2023Q2,264,"Woodhaven Blvd (M,R)",Queens,40.733106,-73.869229,1061752
2023Q2,265,"Grand Av-Newtown (M,R)",Queens,40.737015,-73.877223,997170
2023Q2,266,"Elmhurst Av (M,R)",Queens,40.742454,-73.882017,687126
2023Q2,268,"65 St (M,R)",Queens,40.749669,-73.898453,186037
2023Q2,269,"Northern Blvd (M,R)",Queens,40.752885,-73.906006,359759
2023Q2,270,"46 St (M,R)",Queens,40.756312,-73.913333,434028
2023Q2,271,"Steinway St (M,R)",Queens,40.756879,-73.92074,716176
2023Q2,272,"36 St (M,R)",Queens,40.752039,-73.928781,214288
2023Q2,273,"Queens Plaza (E,M,R)",Queens,40.748973,-73.937243,832280
2023Q2,276,"5 Av/53 St (E,M)",Manhattan,40.760167,-73.975224,1035844
2023Q2,277,"7 Av (E,B,D)",Manhattan,40.762862,-73.981637,964590
2023Q2,278,"Jamaica Center-Parsons/Archer (E,J,Z)",Queens,40.702147,-73.801109,1529119
2023Q2,279,"Sutphin Blvd-Archer Av-JFK Airport (E,J,Z)",Queens,40.700486,-73.807969,1572600
2023Q2,28,Union St (R),Brooklyn,40.677316,-73.98311,419977
2023Q2,280,Jamaica-Van Wyck (E),Queens,40.702566,-73.816859,262397
2023Q2,282,21 St (G),Queens,40.744065,-73.949724,112053
2023Q2,283,Greenpoint Av (G),Brooklyn,40.731352,-73.954449,606204
2023Q2,284,Nassau Av (G),Brooklyn,40.724635,-73.951277,568723
2023Q2,286,Broadway (G),Brooklyn,40.706092,-73.950308,270246
2023Q2,287,Flushing Av (G),Brooklyn,40.700377,-73.950234,178843
2023Q2,288,Myrtle-Willoughby Avs (G),Brooklyn,40.694568,-73.949046,312314
2023Q2,289,Bedford-Nostrand Avs (G),Brooklyn,40.689627,-73.953522,515354
2023Q2,290,Classon Av (G),Brooklyn,40.688873,-73.96007,336471
2023Q2,291,Clinton-Washington Avs (G),Brooklyn,40.688089,-73.966839,314083
2023Q2,292,Fulton St (G),Brooklyn,40.687119,-73.975375,383727
2023Q2,293,Van Cortlandt Park-242 St (1),Bronx,40.889248,-73.898583,368100
2023Q2,294,238 St (1),Bronx,40.884667,-73.90087,256088
2023Q2,295,231 St (1),Bronx,40.878856,-73.904834,496925
2023Q2,296,Marble Hill-225 St (1),Manhattan,40.874561,-73.909831,279439
2023Q2,297,215 St (1),Manhattan,40.869444,-73.915279,124838
2023Q2,298,207 St (1),Manhattan,40.864621,-73.918822,373441
2023Q2,299,Dyckman St (1),Manhattan,40.860531,-73.925536,421993
2023Q2,3,"30 Av (N,W)",Queens,40.766779,-73.921479,754864
2023Q2,30,Prospect Av (R),Brooklyn,40.665414,-73.992872,335563
2023Q2,300,191 St (1),Manhattan,40.855225,-73.929412,458225
2023Q2,301,181 St (1),Manhattan,40.849505,-73.933596,678673
2023Q2,303,157 St (1),Manhattan,40.834041,-73.94489,608205
2023Q2,304,145 St (1),Manhattan,40.826551,-73.95036,567125
2023Q2,305,137 St-City College (1),Manhattan,40.822008,-73.953676,694667
2023Q2,306,125 St (1),Manhattan,40.815581,-73.958372,518611
2023Q2,307,116 St-Columbia University (1),Manhattan,40.807722,-73.96411,812414
2023Q2,308,Cathedral Pkwy (110 St) (1),Manhattan,40.803967,-73.966847,755270
2023Q2,309,103 St (1),Manhattan,40.799446,-73.968379,753853
2023Q2,31,25 St (R),Brooklyn,40.660397,-73.998091,211894
2023Q2,310,"96 St (1,2,3)",Manhattan,40.793919,-73.972323,2047973
2023Q2,311,86 St (1),Manhattan,40.788644,-73.976218,1040689
2023Q2,312,79 St (1),Manhattan,40.783934,-73.979917,904643
2023Q2,313,"72 St (1,2,3)",Manhattan,40.778453,-73.98197,2359961
2023Q2,314,66 St-Lincoln Center (1),Manhattan,40.77344,-73.982209,1223500
2023Q2,316,50 St (1),Manhattan,40.761728,-73.983849,1477430
2023Q2,318,"34 St-Penn Station (1,2,3)",Manhattan,40.750373,-73.991057,3849168
2023Q2,319,28 St (1),Manhattan,40.747215,-73.993365,759525
2023Q2,32,"36 St (D,N,R)",Brooklyn,40.655144,-74.003549,894698
2023Q2,320,23 St (1),Manhattan,40.744081,-73.995657,798066
2023Q2,321,18 St (1),Manhattan,40.74104,-73.997871,469655
2023Q2,323,Christopher St-Sheridan Sq (1),Manhattan,40.733422,-74.002906,736831
2023Q2,324,Houston St (1),Manhattan,40.728251,-74.005367,703159
2023Q2,325,Canal St (1),Manhattan,40.722854,-74.006277,298806
2023Q2,326,Franklin St (1),Manhattan,40.719318,-74.006886,339292
2023Q2,327,"Chambers St (1,2,3)",Manhattan,40.715478,-74.009266,965242
2023Q2,328,WTC Cortlandt (1),Manhattan,40.711835,-74.012188,766760
2023Q2,329,Rector St (1),Manhattan,40.707513,-74.013783,415909
2023Q2,33,45 St (R),Brooklyn,40.648939,-74.010006,482871
2023Q2,333,"Wall St (2,3)",Manhattan,40.706821,-74.0091,961983
2023Q2,334,"Clark St (2,3)",Brooklyn,40.697466,-73.993086,410629
2023Q2,336,"Hoyt St (2,3)",Brooklyn,40.690545,-73.985065,424392
2023Q2,337,"Nevins St (2,3,4,5)",Brooklyn,40.688246,-73.980492,550900
2023Q2,339,"Bergen St (2,3)",Brooklyn,40.680829,-73.975098,251353
2023Q2,34,53 St (R),Brooklyn,40.645069,-74.014034,516975
2023Q2,340,"Grand Army Plaza (2,3)",Brooklyn,40.675235,-73.971046,434903
2023Q2,341,"Eastern Pkwy-Brooklyn Museum (2,3)",Brooklyn,40.671987,-73.964375,308469
2023Q2,343,Nostrand Av (3),Brooklyn,40.669847,-73.950466,204947
2023Q2,344,Kingston Av (3),Brooklyn,40.669399,-73.942161,253645
2023Q2,345,"Crown Hts-Utica Av (3,4)",Brooklyn,40.668897,-73.932942,1337902
2023Q2,346,Sutter Av-Rutland Rd (3),Brooklyn,40.664717,-73.92261,332144
2023Q2,347,Saratoga Av (3),Brooklyn,40.661453,-73.916327,247459
2023Q2,348,Rockaway Av (3),Brooklyn,40.662549,-73.908946,215081
2023Q2,349,Junius St (3),Brooklyn,40.663515,-73.902447,128991
2023Q2,35,"59 St (N,R)",Brooklyn,40.641362,-74.017881,727537
2023Q2,350,Pennsylvania Av (3),Brooklyn,40.664635,-73.894895,221824
2023Q2,351,Van Siclen Av (3),Brooklyn,40.665449,-73.889395,128860
2023Q2,352,New Lots Av (3),Brooklyn,40.666235,-73.884079,290736
2023Q2,353,"President St-Medgar Evers College (2,5)",Brooklyn,40.667883,-73.950683,189118
2023Q2,354,"Sterling St (2,5)",Brooklyn,40.662742,-73.95085,309955
2023Q2,355,"Winthrop St (2,5)",Brooklyn,40.656652,-73.9502,410500
2023Q2,356,"Church Av (2,5)",Brooklyn,40.650843,-73.949575,505493
2023Q2,357,"Beverly Rd (2,5)",Brooklyn,40.645098,-73.948959,241437
2023Q2,358,"Newkirk Av-Little Haiti (2,5)",Brooklyn,40.639967,-73.948411,370027
2023Q2,359,"Flatbush Av-Brooklyn College (2,5)",Brooklyn,40.632836,-73.947642,931852
2023Q2,36,Bay Ridge Av (R),Brooklyn,40.634967,-74.023377,449777
2023Q2,360,Pelham Bay Park (6),Bronx,40.852462,-73.828121,323472
2023Q2,361,Buhre Av (6),Bronx,40.84681,-73.832569,191218
2023Q2,362,Middletown Rd (6),Bronx,40.843863,-73.836322,98853
2023Q2,363,Westchester Sq-E Tremont Av (6),Bronx,40.839892,-73.842952,237357
2023Q2,364,Zerega Av (6),Bronx,40.836488,-73.847036,116788
2023Q2,365,Castle Hill Av (6),Bronx,40.834255,-73.851222,264753
2023Q2,366,Parkchester (6),Bronx,40.833226,-73.860816,875920
2023Q2,367,St Lawrence Av (6),Bronx,40.831509,-73.867618,211769
2023Q2,368,Morrison Av-Soundview (6),Bronx,40.829521,-73.874516,321367
2023Q2,369,Elder Av (6),Bronx,40.828584,-73.879159,319339
2023Q2,37,77 St (R),Brooklyn,40.629742,-74.02551,304854
2023Q2,370,Whitlock Av (6),Bronx,40.826525,-73.886283,103517
2023Q2,371,Hunts Point Av (6),Bronx,40.820948,-73.890549,555347
2023Q2,372,Longwood Av (6),Bronx,40.816104,-73.896435,180978
2023Q2,373,E 149 St (6),Bronx,40.812118,-73.904098,257916
2023Q2,374,E 143 St-St Mary's St (6),Bronx,40.808719,-73.907657,68205
2023Q2,375,Cypress Av (6),Bronx,40.805368,-73.914042,133212
2023Q2,376,Brook Av (6),Bronx,40.807566,-73.91924,282998
2023Q2,377,3 Av-138 St (6),Bronx,40.810476,-73.926138,468123
2023Q2,378,Woodlawn (4),Bronx,40.886037,-73.878751,355472
2023Q2,379,Mosholu Pkwy (4),Bronx,40.87975,-73.884655,448256
2023Q2,38,86 St (R),Brooklyn,40.622687,-74.028398,669842
2023Q2,380,Bedford Park Blvd-Lehman College (4),Bronx,40.873412,-73.890064,300595
2023Q2,381,Kingsbridge Rd (4),Bronx,40.86776,-73.897174,513775
2023Q2,382,Fordham Rd (4),Bronx,40.862803,-73.901034,606440
2023Q2,383,183 St (4),Bronx,40.858407,-73.903879,314527
2023Q2,384,Burnside Av (4),Bronx,40.853453,-73.907684,478734
2023Q2,385,176 St (4),Bronx,40.84848,-73.911794,275944
2023Q2,386,Mt Eden Av (4),Bronx,40.844434,-73.914685,258684
2023Q2,387,170 St (4),Bronx,40.840075,-73.917791,392158
2023Q2,388,167 St (4),Bronx,40.835537,-73.9214,500916
2023Q2,39,Bay Ridge-95 St (R),Brooklyn,40.616622,-74.030876,308333
2023Q2,391,"138 St-Grand Concourse (4,5)",Bronx,40.813224,-73.929849,204720
2023Q2,392,"125 St (4,5,6)",Manhattan,40.804138,-73.937594,1273689
2023Q2,393,116 St (6),Manhattan,40.798629,-73.941617,724908
2023Q2,394,110 St (6),Manhattan,40.79502,-73.94425,557588
2023Q2,395,103 St (6),Manhattan,40.7906,-73.947478,674096
2023Q2,396,96 St (6),Manhattan,40.785672,-73.95107,955508
2023Q2,397,"86 St (4,5,6)",Manhattan,40.779492,-73.955589,2679032
2023Q2,398,77 St (6),Manhattan,40.77362,-73.959874,1586496
2023Q2,399,68 St-Hunter College (6),Manhattan,40.768141,-73.96387,1186017
2023Q2,4,"Broadway (N,W)",Queens,40.76182,-73.925508,690643
2023Q2,403,33 St (6),Manhattan,40.746081,-73.982076,1444963
2023Q2,404,28 St (6),Manhattan,40.74307,-73.984264,1120941
2023Q2,405,23 St (6),Manhattan,40.739864,-73.986599,1342063
2023Q2,407,Astor Pl (6),Manhattan,40.730054,-73.99107,924454
2023Q2,409,Spring St (6),Manhattan,40.722301,-73.997141,757341
2023Q2,41,"7 Av (B,Q)",Brooklyn,40.67705,-73.972367,557885
2023Q2,413,"Wall St (4,5)",Manhattan,40.707557,-74.011862,872291
2023Q2,414,"Bowling Green (4,5)",Manhattan,40.704817,-74.014065,1277309
2023Q2,416,Wakefield-241 St (2),Bronx,40.903125,-73.85062,221936
2023Q2,417,"Nereid Av (2,5)",Bronx,40.898379,-73.854376,156023
2023Q2,418,"233 St (2,5)",Bronx,40.893193,-73.857473,225865
2023Q2,419,"225 St (2,5)",Bronx,40.888022,-73.860341,151877
2023Q2,42,"Prospect Park (B,Q,S)",Brooklyn,40.661614,-73.962246,594023
2023Q2,420,"219 St (2,5)",Bronx,40.883895,-73.862633,133974
2023Q2,421,"Gun Hill Rd (2,5)",Bronx,40.87785,-73.866256,321851
2023Q2,422,"Burke Av (2,5)",Bronx,40.871356,-73.867164,141166
2023Q2,423,"Allerton Av (2,5)",Bronx,40.865462,-73.867352,230568
2023Q2,424,"Pelham Pkwy (2,5)",Bronx,40.857192,-73.867615,451005
2023Q2,425,"Bronx Park East (2,5)",Bronx,40.848828,-73.868457,116237
2023Q2,426,"E 180 St (2,5)",Bronx,40.841894,-73.873488,458864
2023Q2,427,"West Farms Sq-E Tremont Av (2,5)",Bronx,40.840295,-73.880049,261180
2023Q2,428,"174 St (2,5)",Bronx,40.837288,-73.887734,295177
2023Q2,429,"Freeman St (2,5)",Bronx,40.829993,-73.891865,209070
2023Q2,43,Parkside Av (Q),Brooklyn,40.655292,-73.961495,363024
2023Q2,430,"Simpson St (2,5)",Bronx,40.824073,-73.893064,346262
2023Q2,431,"Intervale Av (2,5)",Bronx,40.822181,-73.896736,147655
2023Q2,432,"Prospect Av (2,5)",Bronx,40.819585,-73.90177,324417
2023Q2,433,"Jackson Av (2,5)",Bronx,40.81649,-73.907807,237624
2023Q2,434,"3 Av-149 St (2,5)",Bronx,40.816109,-73.917757,890391
2023Q2,436,Harlem-148 St (3),Manhattan,40.82388,-73.93647,185643
2023Q2,437,145 St (3),Manhattan,40.820421,-73.936245,158006
2023Q2,438,"135 St (2,3)",Manhattan,40.814229,-73.94077,586411
2023Q2,439,"125 St (2,3)",Manhattan,40.807754,-73.945495,716328
2023Q2,44,"Church Av (B,Q)",Brooklyn,40.650527,-73.962982,848726
2023Q2,440,"116 St (2,3)",Manhattan,40.802098,-73.949625,527979
2023Q2,441,"Central Park North (110 St) (2,3)",Manhattan,40.799075,-73.951822,440670
2023Q2,442,Eastchester-Dyre Av (5),Bronx,40.8883,-73.830834,195652
2023Q2,443,Baychester Av (5),Bronx,40.878663,-73.838591,143132
2023Q2,444,Gun Hill Rd (5),Bronx,40.869526,-73.846384,244861
2023Q2,445,Pelham Pkwy (5),Bronx,40.858985,-73.855359,145608
2023Q2,446,Morris Park (5),Bronx,40.854364,-73.860495,133377
2023Q2,447,Flushing-Main St (7),Queens,40.7596,-73.83003,3606251
2023Q2,448,Mets-Willets Point (7),Queens,40.754622,-73.845625,583549
2023Q2,449,111 St (7),Queens,40.75173,-73.855334,615355
2023Q2,45,Beverley Rd (Q),Brooklyn,40.644031,-73.964492,207523
2023Q2,450,103 St-Corona Plaza (7),Queens,40.749865,-73.8627,1622988
2023Q2,451,Junction Blvd (7),Queens,40.749145,-73.869527,1695758
2023Q2,452,90 St-Elmhurst Av (7),Queens,40.748408,-73.876613,1134959
2023Q2,453,82 St-Jackson Hts (7),Queens,40.747659,-73.883697,816775
2023Q2,455,69 St (7),Queens,40.746325,-73.896403,353371
2023Q2,456,61 St-Woodside (7),Queens,40.74563,-73.902984,1133061
2023Q2,457,52 St (7),Queens,40.744149,-73.912549,366459
2023Q2,458,46 St-Bliss St (7),Queens,40.743132,-73.918435,745767
2023Q2,459,40 St-Lowery St (7),Queens,40.743781,-73.924016,567976
2023Q2,46,Cortelyou Rd (Q),Brooklyn,40.640927,-73.963891,341838
2023Q2,460,33 St-Rawson St (7),Queens,40.744587,-73.930997,432623
2023Q2,461,"Queensboro Plaza (7,N,W)",Queens,40.750582,-73.940202,1884796
2023Q2,463,Hunters Point Av (7),Queens,40.742216,-73.948916,268079
2023Q2,464,Vernon Blvd-Jackson Av (7),Queens,40.742626,-73.953581,972907
2023Q2,47,"Newkirk Plaza (B,Q)",Brooklyn,40.635082,-73.962793,561624
2023Q2,471,34 St-Hudson Yards (7),Manhattan,40.755882,-74.00191,1405377
2023Q2,475,96 St (Q),Manhattan,40.784318,-73.947152,1007715
2023Q2,476,86 St (Q),Manhattan,40.777891,-73.951787,1433350
2023Q2,477,72 St (Q),Manhattan,40.768799,-73.958424,1680092
2023Q2,48,Avenue H (Q),Brooklyn,40.62927,-73.961639,166377
2023Q2,49,Avenue J (Q),Brooklyn,40.625039,-73.960803,304572
2023Q2,5,"36 Av (N,W)",Queens,40.756804,-73.929575,367104
2023Q2,50,Avenue M (Q),Brooklyn,40.617618,-73.959399,318980
2023Q2,501,St George (SIR),Staten Island,40.643748,-74.073643,479439
2023Q2,502,Tompkinsville (SIR),Staten Island,40.636949,-74.074835,40313
2023Q2,51,"Kings Hwy (B,Q)",Brooklyn,40.60867,-73.957734,1116782
2023Q2,52,Avenue U (Q),Brooklyn,40.5993,-73.955929,414854
2023Q2,53,Neck Rd (Q),Brooklyn,40.595246,-73.955161,249554
2023Q2,54,"Sheepshead Bay (B,Q)",Brooklyn,40.586896,-73.954155,734113
2023Q2,55,"Brighton Beach (B,Q)",Brooklyn,40.577621,-73.961376,692777
2023Q2,56,Ocean Pkwy (Q),Brooklyn,40.576312,-73.968501,201261
2023Q2,57,"W 8 St-NY Aquarium (F,Q)",Brooklyn,40.576127,-73.975939,181962
2023Q2,58,"Coney Island-Stillwell Av (D,F,N,Q)",Brooklyn,40.577422,-73.981233,968004
2023Q2,59,9 Av (D),Brooklyn,40.646292,-73.994324,327866
2023Q2,6,"39 Av-Dutch Kills (N,W)",Queens,40.752882,-73.932755,201922
2023Q2,60,Fort Hamilton Pkwy (D),Brooklyn,40.640914,-73.994304,223772
2023Q2,601,"14 St (F,M,1,2,3)/6 Av (L)",Manhattan,40.737335,-73.996786,3094638
2023Q2,601,"14 St (F,M,1,2,3)/6 Av (L)",Manhattan,40.737826,-74.000201,3094638
2023Q2,601,"14 St (F,M,1,2,3)/6 Av (L)",Manhattan,40.738228,-73.996209,3094638
2023Q2,602,"14 St-Union Sq (L,N,Q,R,W,4,5,6)",Manhattan,40.734673,-73.989951,5528998
2023Q2,602,"14 St-Union Sq (L,N,Q,R,W,4,5,6)",Manhattan,40.734789,-73.99073,5528998
2023Q2,602,"14 St-Union Sq (L,N,Q,R,W,4,5,6)",Manhattan,40.735736,-73.990568,5528998
2023Q2,603,"149 St-Grand Concourse (2,4,5)",Bronx,40.818375,-73.927351,525776
2023Q2,603,"149 St-Grand Concourse (2,4,5)",Bronx,40.81841,-73.926718,525776
2023Q2,604,"161 St-Yankee Stadium (B,D,4)",Bronx,40.827905,-73.925651,1636582
2023Q2,604,"161 St-Yankee Stadium (B,D,4)",Bronx,40.827994,-73.925831,1636582
2023Q2,605,"168 St (A,C,1)",Manhattan,40.840556,-73.940133,1379634
2023Q2,605,"168 St (A,C,1)",Manhattan,40.840719,-73.939561,1379634
2023Q2,606,"Court Sq (E,G,M,7)",Queens,40.746554,-73.943832,1339918
2023Q2,606,"Court Sq (E,G,M,7)",Queens,40.747023,-73.945264,1339918
2023Q2,606,"Court Sq (E,G,M,7)",Queens,40.747846,-73.946,1339918
2023Q2,607,"34 St-Herald Sq (B,D,F,M,N,Q,R,W)",Manhattan,40.749567,-73.98795,5991545
2023Q2,607,"34 St-Herald Sq (B,D,F,M,N,Q,R,W)",Manhattan,40.749719,-73.987823,5991545
2023Q2,608,"4 Av (F,G)/9 St (R)",Brooklyn,40.670272,-73.989779,735368
2023Q2,608,"4 Av (F,G)/9 St (R)",Brooklyn,40.670847,-73.988302,735368
2023Q2,609,"Bryant Pk (B,D,F,M)/5 Av (7)",Manhattan,40.753821,-73.981963,2715909
2023Q2,609,"Bryant Pk (B,D,F,M)/5 Av (7)",Manhattan,40.754222,-73.984569,2715909
2023Q2,61,50 St (D),Brooklyn,40.63626,-73.994791,185948
2023Q2,610,"Grand Central-42 St (S,4,5,6,7)",Manhattan,40.751431,-73.976041,7779750
2023Q2,610,"Grand Central-42 St (S,4,5,6,7)",Manhattan,40.751776,-73.976848,7779750
2023Q2,610,"Grand Central-42 St (S,4,5,6,7)",Manhattan,40.752769,-73.979189,7779750
2023Q2,611,"Times Sq-42 St (N,Q,R,W,S,1,2,3,7)/42 St (A,C,E)",Manhattan,40.754672,-73.986754,10996187
2023Q2,611,"Times Sq-42 St (N,Q,R,W,S,1,2,3,7)/42 St (A,C,E)",Manhattan,40.75529,-73.987495,10996187
2023Q2,611,"Times Sq-42 St (N,Q,R,W,S,1,2,3,7)/42 St (A,C,E)",Manhattan,40.755477,-73.987691,10996187
2023Q2,611,"Times Sq-42 St (N,Q,R,W,S,1,2,3,7)/42 St (A,C,E)",Manhattan,40.755983,-73.986229,10996187
2023Q2,611,"Times Sq-42 St (N,Q,R,W,S,1,2,3,7)/42 St (A,C,E)",Manhattan,40.757308,-73.989735,10996187
2023Q2,612,"Lexington Av-53 St (E,M)/51 St (6)",Manhattan,40.757107,-73.97192,2807914
2023Q2,612,"Lexington Av-53 St (E,M)/51 St (6)",Manhattan,40.757552,-73.969055,2807914
2023Q2,613,"Lexington Av (N,R,W)/59 St (4,5,6)",Manhattan,40.762526,-73.967967,2943722
2023Q2,613,"Lexington Av (N,R,W)/59 St (4,5,6)",Manhattan,40.76266,-73.967258,2943722
2023Q2,614,"59 St-Columbus Circle (A,B,C,D,1)",Manhattan,40.768247,-73.981929,4033243
2023Q2,614,"59 St-Columbus Circle (A,B,C,D,1)",Manhattan,40.768296,-73.981736,4033243
2023Q2,615,New Utrecht Av (N)/62 St (D),Brooklyn,40.624842,-73.996353,293968
2023Q2,615,New Utrecht Av (N)/62 St (D),Brooklyn,40.626472,-73.996895,293968
2023Q2,616,"74-Broadway (7)/Jackson Hts-Roosevelt Av (E,F,M,R)",Queens,40.746644,-73.891338,3631557
2023Q2,616,"74-Broadway (7)/Jackson Hts-Roosevelt Av (E,F,M,R)",Queens,40.746848,-73.891394,3631557
2023Q2,617,"Atlantic Av-Barclays Ctr (B,D,N,Q,R,2,3,4,5)",Brooklyn,40.683666,-73.97881,2499624
2023Q2,617,"Atlantic Av-Barclays Ctr (B,D,N,Q,R,2,3,4,5)",Brooklyn,40.684359,-73.977666,2499624
2023Q2,617,"Atlantic Av-Barclays Ctr (B,D,N,Q,R,2,3,4,5)",Brooklyn,40.68446,-73.97689,2499624
2023Q2,618,"14 St (A,C,E)/8 Av (L)",Manhattan,40.739777,-74.002578,2842673
2023Q2,618,"14 St (A,C,E)/8 Av (L)",Manhattan,40.740893,-74.00169,2842673
2023Q2,619,"Broadway-Lafayette St (B,D,F,M)/Bleecker St (6)",Manhattan,40.725297,-73.996204,2369776
2023Q2,619,"Broadway-Lafayette St (B,D,F,M)/Bleecker St (6)",Manhattan,40.725915,-73.994659,2369776
2023Q2,62,55 St (D),Brooklyn,40.631435,-73.995476,104891
2023Q2,620,"Court St (R)/Borough Hall (2,3,4,5)",Brooklyn,40.692404,-73.990151,1631285
2023Q2,620,"Court St (R)/Borough Hall (2,3,4,5)",Brooklyn,40.693219,-73.989998,1631285
2023Q2,620,"Court St (R)/Borough Hall (2,3,4,5)",Brooklyn,40.6941,-73.991777,1631285
2023Q2,621,"Broadway Junction (A,C,J,L,Z)",Brooklyn,40.678334,-73.905316,436964
2023Q2,621,"Broadway Junction (A,C,J,L,Z)",Brooklyn,40.678856,-73.90324,436964
2023Q2,621,"Broadway Junction (A,C,J,L,Z)",Brooklyn,40.679498,-73.904512,436964
2023Q2,622,"Brooklyn Bridge-City Hall (4,5,6)/Chambers St (J,Z)",Manhattan,40.713065,-74.004131,1519836
2023Q2,622,"Brooklyn Bridge-City Hall (4,5,6)/Chambers St (J,Z)",Manhattan,40.713243,-74.003401,1519836
2023Q2,623,"Canal St (J,N,Q,R,W,Z,6)",Manhattan,40.718092,-73.999892,2683629
2023Q2,623,"Canal St (J,N,Q,R,W,Z,6)",Manhattan,40.718383,-74.00046,2683629
2023Q2,623,"Canal St (J,N,Q,R,W,Z,6)",Manhattan,40.718803,-74.000193,2683629
2023Q2,623,"Canal St (J,N,Q,R,W,Z,6)",Manhattan,40.719527,-74.001775,2683629
2023Q2,624,"Chambers St (A,C)/WTC (E)/Park Pl (2,3)/Cortlandt (R,W)",Manhattan,40.710668,-74.011029,3179809
2023Q2,624,"Chambers St (A,C)/WTC (E)/Park Pl (2,3)/Cortlandt (R,W)",Manhattan,40.712582,-74.009781,3179809
2023Q2,624,"Chambers St (A,C)/WTC (E)/Park Pl (2,3)/Cortlandt (R,W)",Manhattan,40.713051,-74.008811,3179809
2023Q2,624,"Chambers St (A,C)/WTC (E)/Park Pl (2,3)/Cortlandt (R,W)",Manhattan,40.714111,-74.008585,3179809
2023Q2,625,"Delancey St (F)/Essex St (J,M,Z)",Manhattan,40.718315,-73.987437,1846399
2023Q2,625,"Delancey St (F)/Essex St (J,M,Z)",Manhattan,40.718611,-73.988114,1846399
2023Q2,626,"Franklin Av (2,3,4,5)/Botanic Garden (S)",Brooklyn,40.670343,-73.959245,860625
2023Q2,626,"Franklin Av (2,3,4,5)/Botanic Garden (S)",Brooklyn,40.670682,-73.958131,860625
2023Q2,627,"Franklin Av (C,S)",Brooklyn,40.680596,-73.955827,313644
2023Q2,627,"Franklin Av (C,S)",Brooklyn,40.68138,-73.956848,313644
2023Q2,628,"Fulton St (A,C,J,Z,2,3,4,5)",Manhattan,40.709416,-74.006571,4540192
2023Q2,628,"Fulton St (A,C,J,Z,2,3,4,5)",Manhattan,40.710197,-74.007691,4540192
2023Q2,628,"Fulton St (A,C,J,Z,2,3,4,5)",Manhattan,40.710368,-74.009509,4540192
2023Q2,628,"Fulton St (A,C,J,Z,2,3,4,5)",Manhattan,40.710374,-74.007582,4540192
2023Q2,629,Lorimer St (L)/Metropolitan Av (G),Brooklyn,40.712792,-73.951418,993471
2023Q2,629,Lorimer St (L)/Metropolitan Av (G),Brooklyn,40.714063,-73.950275,993471
2023Q2,630,"Myrtle-Wyckoff Avs (L,M)",Brooklyn,40.69943,-73.912385,1330140
2023Q2,630,"Myrtle-Wyckoff Avs (L,M)",Brooklyn,40.699814,-73.911586,1330140
2023Q2,635,"South Ferry (1)/Whitehall St (R,W)",Manhattan,40.702068,-74.013664,1585309
2023Q2,635,"South Ferry (1)/Whitehall St (R,W)",Manhattan,40.703087,-74.012994,1585309
2023Q2,636,"Jay St-MetroTech (A,C,F,R)",Brooklyn,40.69218,-73.985942,1879015
2023Q2,636,"Jay St-MetroTech (A,C,F,R)",Brooklyn,40.692338,-73.987342,1879015
2023Q2,64,71 St (D),Brooklyn,40.619589,-73.998864,279900
2023Q2,65,79 St (D),Brooklyn,40.613501,-74.00061,329216
2023Q2,66,18 Av (D),Brooklyn,40.607954,-74.001736,347650
2023Q2,67,20 Av (D),Brooklyn,40.604556,-73.998168,291319
2023Q2,68,Bay Pkwy (D),Brooklyn,40.601875,-73.993728,446127
2023Q2,69,25 Av (D),Brooklyn,40.597704,-73.986829,248213
2023Q2,70,Bay 50 St (D),Brooklyn,40.588841,-73.983765,152978
2023Q2,71,8 Av (N),Brooklyn,40.635064,-74.011719,650272
2023Q2,72,Fort Hamilton Pkwy (N),Brooklyn,40.631386,-74.005351,383770
2023Q2,74,18 Av (N),Brooklyn,40.620671,-73.990414,292272
2023Q2,75,20 Av (N),Brooklyn,40.61741,-73.985026,233799
2023Q2,76,Bay Pkwy (N),Brooklyn,40.611815,-73.981848,409837
2023Q2,77,Kings Hwy (N),Brooklyn,40.603923,-73.980353,318642
2023Q2,78,Avenue U (N),Brooklyn,40.597473,-73.979137,225838
2023Q2,79,86 St (N),Brooklyn,40.592721,-73.97823,145333
2023Q2,8,"5 Av/59 St (N,R,W)",Manhattan,40.764811,-73.973347,901775
2023Q2,80,"121 St (J,Z)",Queens,40.700492,-73.828294,128614
2023Q2,81,111 St (J),Queens,40.697418,-73.836345,119949
2023Q2,82,"104 St (J,Z)",Queens,40.695178,-73.84433,154450
2023Q2,83,"Woodhaven Blvd (J,Z)",Queens,40.693879,-73.851576,135222
2023Q2,84,85 St-Forest Pkwy (J),Queens,40.692435,-73.86001,225813
2023Q2,85,"75 St-Elderts Ln (J,Z)",Queens,40.691324,-73.867139,97092
2023Q2,86,Cypress Hills (J),Brooklyn,40.689941,-73.87255,74336
2023Q2,87,"Crescent St (J,Z)",Brooklyn,40.683194,-73.873785,206408
2023Q2,88,"Norwood Av (J,Z)",Brooklyn,40.68141,-73.880039,114672
2023Q2,89,Cleveland St (J),Brooklyn,40.679947,-73.884639,119217
2023Q2,9,"57 St-7 Av (N,Q,R,W)",Manhattan,40.764664,-73.980658,1957537
2023Q2,90,"Van Siclen Av (J,Z)",Brooklyn,40.678024,-73.891688,133164
2023Q2,91,Alabama Av (J),Brooklyn,40.676992,-73.898654,98816
2023Q2,93,"Chauncey St (J,Z)",Brooklyn,40.682893,-73.910456,159601
2023Q2,94,Halsey St (J),Brooklyn,40.68637,-73.916559,331095
2023Q2,95,"Gates Av (J,Z)",Brooklyn,40.68963,-73.92227,380258
2023Q2,96,Kosciuszko St (J),Brooklyn,40.693342,-73.928814,318137
2023Q2,97,"Myrtle Av (M,J,Z)",Brooklyn,40.697207,-73.935657,691942
2023Q2,98,"Flushing Av (M,J)",Brooklyn,40.70026,-73.941126,416267
2023Q2,99,"Lorimer St (M,J)",Brooklyn,40.703869,-73.947408,228588
2023Q2,TRAM1,RI Tramway (Manhattan),Manhattan,40.761338,-73.964155,382464
2023Q2,TRAM2,RI Tramway (Roosevelt),Manhattan,40.75734,-73.954114,328596
2023Q3,1,"Astoria-Ditmars Blvd (N,W)",Queens,40.775036,-73.912034,762305
2023Q3,10,"49 St (N,R,W)",Manhattan,40.759901,-73.984139,1327647
2023Q3,100,"Hewes St (M,J)",Brooklyn,40.70687,-73.953431,147636
2023Q3,101,"Marcy Av (M,J,Z)",Brooklyn,40.708359,-73.957757,693257
2023Q3,103,"Bowery (J,Z)",Manhattan,40.72028,-73.993915,235062
2023Q3,107,"Broad St (J,Z)",Manhattan,40.706476,-74.011056,318560
2023Q3,108,Middle Village-Metropolitan Av (M),Queens,40.711396,-73.889601,191538
2023Q3,109,Fresh Pond Rd (M),Queens,40.706186,-73.895877,285363
2023Q3,110,Forest Av (M),Queens,40.704423,-73.903077,216015
2023Q3,111,Seneca Av (M),Queens,40.702762,-73.90774,139978
2023Q3,113,Knickerbocker Av (M),Brooklyn,40.698664,-73.919711,193609
2023Q3,114,Central Av (M),Brooklyn,40.697857,-73.927397,189578
2023Q3,118,3 Av (L),Manhattan,40.732849,-73.986122,380135
2023Q3,119,1 Av (L),Manhattan,40.730953,-73.981628,1389794
2023Q3,120,Bedford Av (L),Brooklyn,40.717304,-73.956872,2083430
2023Q3,122,Graham Av (L),Brooklyn,40.714565,-73.944053,522396
2023Q3,123,Grand St (L),Brooklyn,40.711926,-73.94067,364305
2023Q3,124,Montrose Av (L),Brooklyn,40.707739,-73.93985,411507
2023Q3,125,Morgan Av (L),Brooklyn,40.706152,-73.933147,435770
2023Q3,126,Jefferson St (L),Brooklyn,40.706607,-73.922913,523471
2023Q3,127,DeKalb Av (L),Brooklyn,40.703811,-73.918425,668817
2023Q3,129,Halsey St (L),Queens,40.695602,-73.904084,392512
2023Q3,13,"28 St (R,W)",Manhattan,40.745494,-73.988691,661372
2023Q3,130,Wilson Av (L),Brooklyn,40.688764,-73.904046,212807
2023Q3,131,Bushwick Av-Aberdeen St (L),Brooklyn,40.682829,-73.905249,126722
2023Q3,133,Atlantic Av (L),Brooklyn,40.675345,-73.903097,82827
2023Q3,134,Sutter Av (L),Brooklyn,40.669367,-73.901975,105626
2023Q3,135,Livonia Av (L),Brooklyn,40.664038,-73.900571,124021
2023Q3,136,New Lots Av (L),Brooklyn,40.658733,-73.899232,157715
2023Q3,137,East 105 St (L),Brooklyn,40.650573,-73.899485,138186
2023Q3,138,Canarsie-Rockaway Pkwy (L),Brooklyn,40.646654,-73.90185,159057
2023Q3,14,"23 St (R,W)",Manhattan,40.741303,-73.989344,1014753
2023Q3,141,Park Pl (S),Brooklyn,40.674772,-73.957624,86688
2023Q3,143,Inwood-207 St (A),Manhattan,40.868072,-73.919899,464746
2023Q3,144,Dyckman St (A),Manhattan,40.865491,-73.927271,342194
2023Q3,145,190 St (A),Manhattan,40.859022,-73.93418,252881
2023Q3,146,181 St (A),Manhattan,40.851695,-73.937969,405893
2023Q3,147,175 St (A),Manhattan,40.847391,-73.939704,573356
2023Q3,149,163 St-Amsterdam Av (C),Manhattan,40.836013,-73.939892,206869
2023Q3,150,155 St (C),Manhattan,40.830518,-73.941514,135696
2023Q3,151,"145 St (A,C,B,D)",Manhattan,40.824783,-73.944216,2299680
2023Q3,152,"135 St (C,B)",Manhattan,40.817894,-73.947649,267206
2023Q3,153,"125 St (A,C,B,D)",Manhattan,40.811109,-73.952343,1355789
2023Q3,154,"116 St (C,B)",Manhattan,40.805085,-73.954882,354132
2023Q3,155,"Cathedral Pkwy (110 St) (C,B)",Manhattan,40.800603,-73.958161,418964
2023Q3,156,"103 St (C,B)",Manhattan,40.796092,-73.961454,259942
2023Q3,157,"96 St (C,B)",Manhattan,40.791642,-73.964696,524848
2023Q3,158,"86 St (C,B)",Manhattan,40.785868,-73.968916,597394
2023Q3,159,"81 St-Museum of Natural History (C,B)",Manhattan,40.781433,-73.972143,935123
2023Q3,16,"8 St-NYU (R,W)",Manhattan,40.730328,-73.992629,874422
2023Q3,160,"72 St (C,B)",Manhattan,40.775594,-73.97641,600612
2023Q3,162,"50 St (C,E)",Manhattan,40.762456,-73.985984,1195428
2023Q3,164,"34 St-Penn Station (A,C,E)",Manhattan,40.752287,-73.993391,4366520
2023Q3,165,"23 St (C,E)",Manhattan,40.745906,-73.998041,1043655
2023Q3,167,"W 4 St-Wash Sq (A,C,E,B,D,F,M)",Manhattan,40.732338,-74.000495,4860562
2023Q3,168,"Spring St (C,E)",Manhattan,40.726227,-74.003739,719918
2023Q3,169,"Canal St (A,C,E)",Manhattan,40.720824,-74.005229,992560
2023Q3,17,"Prince St (R,W)",Manhattan,40.724329,-73.997702,789096
2023Q3,173,"High St (A,C)",Brooklyn,40.699337,-73.990531,558287
2023Q3,175,"Hoyt-Schermerhorn Sts (A,C,G)",Brooklyn,40.688484,-73.985001,695714
2023Q3,176,Lafayette Av (C),Brooklyn,40.686113,-73.973946,306452
2023Q3,177,Clinton-Washington Avs (C),Brooklyn,40.683263,-73.965838,382772
2023Q3,179,"Nostrand Av (A,C)",Brooklyn,40.680438,-73.950426,961746
2023Q3,180,Kingston-Throop Avs (C),Brooklyn,40.679921,-73.940858,356268
2023Q3,181,"Utica Av (A,C)",Brooklyn,40.679364,-73.930729,718710
2023Q3,182,Ralph Av (C),Brooklyn,40.678822,-73.920786,262896
2023Q3,183,Rockaway Av (C),Brooklyn,40.67834,-73.911946,255681
2023Q3,185,Liberty Av (C),Brooklyn,40.674542,-73.896548,114731
2023Q3,186,Van Siclen Av (C),Brooklyn,40.67271,-73.890358,126094
2023Q3,187,Shepherd Av (C),Brooklyn,40.67413,-73.88075,136008
2023Q3,188,"Euclid Av (A,C)",Brooklyn,40.675377,-73.872106,536859
2023Q3,189,Grant Av (A),Brooklyn,40.677044,-73.86505,284746
2023Q3,190,80 St (A),Queens,40.679371,-73.858992,218442
2023Q3,191,88 St (A),Queens,40.679843,-73.85147,141351
2023Q3,192,Rockaway Blvd (A),Queens,40.680429,-73.843853,371424
2023Q3,193,104 St (A),Queens,40.681711,-73.837683,86229
2023Q3,194,111 St (A),Queens,40.684331,-73.832163,112910
2023Q3,195,Ozone Park-Lefferts Blvd (A),Queens,40.685951,-73.825798,331373
2023Q3,196,Aqueduct Racetrack (A),Queens,40.672097,-73.835919,55903
2023Q3,197,Aqueduct-N Conduit Av (A),Queens,40.668234,-73.834058,43916
2023Q3,198,Howard Beach-JFK Airport (A),Queens,40.660476,-73.830301,171724
2023Q3,199,"Broad Channel (A,S)",Queens,40.608382,-73.815925,14273
2023Q3,2,"Astoria Blvd (N,W)",Queens,40.770258,-73.917843,564060
2023Q3,20,"City Hall (R,W)",Manhattan,40.713282,-74.006978,295114
2023Q3,200,"Beach 90 St (A,S)",Queens,40.588034,-73.813641,66596
2023Q3,201,"Beach 98 St (A,S)",Queens,40.585307,-73.820558,33872
2023Q3,202,"Beach 105 St (A,S)",Queens,40.583209,-73.827559,27668
2023Q3,203,"Rockaway Park-Beach 116 St (A,S)",Queens,40.580903,-73.835592,51715
2023Q3,204,Beach 67 St (A),Queens,40.590927,-73.796924,136074
2023Q3,205,Beach 60 St (A),Queens,40.592374,-73.788522,87456
2023Q3,206,Beach 44 St (A),Queens,40.592943,-73.776013,35654
2023Q3,207,Beach 36 St (A),Queens,40.595398,-73.768175,41737
2023Q3,208,Beach 25 St (A),Queens,40.600066,-73.761353,75193
2023Q3,209,Far Rockaway-Mott Av (A),Queens,40.603995,-73.755405,206629
2023Q3,210,Norwood-205 St (D),Bronx,40.874811,-73.878855,199076
2023Q3,211,"Bedford Park Blvd (B,D)",Bronx,40.873244,-73.887138,317935
2023Q3,212,"Kingsbridge Rd (B,D)",Bronx,40.866978,-73.893509,257829
2023Q3,213,"Fordham Rd (B,D)",Bronx,40.861296,-73.897749,443319
2023Q3,214,"182-183 Sts (B,D)",Bronx,40.856093,-73.900741,179929
2023Q3,215,"Tremont Av (B,D)",Bronx,40.85041,-73.905227,262644
2023Q3,216,"174-175 Sts (B,D)",Bronx,40.8459,-73.910136,167438
2023Q3,217,"170 St (B,D)",Bronx,40.839306,-73.9134,217538
2023Q3,218,"167 St (B,D)",Bronx,40.833771,-73.91844,328894
2023Q3,22,"Rector St (R,W)",Manhattan,40.70722,-74.013342,287507
2023Q3,220,"155 St (B,D)",Manhattan,40.830135,-73.938209,139699
2023Q3,221,21 St-Queensbridge (F),Queens,40.754203,-73.942836,357611
2023Q3,222,Roosevelt Island (F),Manhattan,40.759145,-73.95326,400394
2023Q3,223,"Lexington Av/63 St (F,Q)",Manhattan,40.764629,-73.966113,895353
2023Q3,224,57 St (F),Manhattan,40.763972,-73.97745,613147
2023Q3,225,"47-50 Sts-Rockefeller Ctr (B,D,F,M)",Manhattan,40.758663,-73.981329,2655670
2023Q3,228,"23 St (F,M)",Manhattan,40.742878,-73.992821,1304704
2023Q3,231,"Grand St (B,D)",Manhattan,40.718267,-73.993753,1378930
2023Q3,232,2 Av (F),Manhattan,40.723402,-73.989938,1037866
2023Q3,234,East Broadway (F),Manhattan,40.713715,-73.990173,940439
2023Q3,235,York St (F),Brooklyn,40.701397,-73.986751,883060
2023Q3,236,"Bergen St (F,G)",Brooklyn,40.686145,-73.990862,630486
2023Q3,237,"Carroll St (F,G)",Brooklyn,40.680303,-73.995048,603013
2023Q3,238,"Smith-9 Sts (F,G)",Brooklyn,40.67358,-73.995959,231183
2023Q3,240,"7 Av (F,G)",Brooklyn,40.666271,-73.980305,616737
2023Q3,241,"15 St-Prospect Park (F,G)",Brooklyn,40.660365,-73.979493,337595
2023Q3,242,"Fort Hamilton Pkwy (F,G)",Brooklyn,40.650782,-73.975776,311606
2023Q3,243,"Church Av (F,G)",Brooklyn,40.644041,-73.979678,519417
2023Q3,244,Ditmas Av (F),Brooklyn,40.636119,-73.978172,191442
2023Q3,245,18 Av (F),Brooklyn,40.629755,-73.976971,160904
2023Q3,246,Avenue I (F),Brooklyn,40.625322,-73.976127,82275
2023Q3,247,Bay Pkwy (F),Brooklyn,40.620769,-73.975264,64955
2023Q3,248,Avenue N (F),Brooklyn,40.61514,-73.974197,133994
2023Q3,249,Avenue P (F),Brooklyn,40.608944,-73.973022,124851
2023Q3,250,Kings Hwy (F),Brooklyn,40.603217,-73.972361,159291
2023Q3,251,Avenue U (F),Brooklyn,40.596063,-73.973357,88989
2023Q3,252,Avenue X (F),Brooklyn,40.58962,-73.97425,119245
2023Q3,253,Neptune Av (F),Brooklyn,40.581011,-73.974574,74484
2023Q3,254,Jamaica-179 St (F),Queens,40.712646,-73.783817,1005382
2023Q3,255,169 St (F),Queens,40.71047,-73.793604,383795
2023Q3,256,Parsons Blvd (F),Queens,40.707564,-73.803326,420679
2023Q3,257,Sutphin Blvd (F),Queens,40.70546,-73.810708,200986
2023Q3,258,"Briarwood (E,F)",Queens,40.709179,-73.820574,254859
2023Q3,259,"Kew Gardens-Union Tpke (E,F)",Queens,40.714441,-73.831008,1289972
2023Q3,26,"DeKalb Av (B,Q,R)",Brooklyn,40.690635,-73.981824,1018415
2023Q3,260,"75 Av (E,F)",Queens,40.718331,-73.837324,156068
2023Q3,261,"Forest Hills-71 Av (E,F,M,R)",Queens,40.721691,-73.844521,1422815
2023Q3,262,"67 Av (M,R)",Queens,40.726523,-73.852719,403689
2023Q3,263,"63 Dr-Rego Park (M,R)",Queens,40.729846,-73.861604,755419
2023Q3,264,"Woodhaven Blvd (M,R)",Queens,40.733106,-73.869229,1053833
2023Q3,265,"Grand Av-Newtown (M,R)",Queens,40.737015,-73.877223,950569
2023Q3,266,"Elmhurst Av (M,R)",Queens,40.742454,-73.882017,673446
2023Q3,268,"65 St (M,R)",Queens,40.749669,-73.898453,176562
2023Q3,269,"Northern Blvd (M,R)",Queens,40.752885,-73.906006,344238
2023Q3,270,"46 St (M,R)",Queens,40.756312,-73.913333,406658
2023Q3,271,"Steinway St (M,R)",Queens,40.756879,-73.92074,673062
2023Q3,272,"36 St (M,R)",Queens,40.752039,-73.928781,202264
2023Q3,273,"Queens Plaza (E,M,R)",Queens,40.748973,-73.937243,953169
2023Q3,276,"5 Av/53 St (E,M)",Manhattan,40.760167,-73.975224,1153353
2023Q3,277,"7 Av (E,B,D)",Manhattan,40.762862,-73.981637,1012167
2023Q3,278,"Jamaica Center-Parsons/Archer (E,J,Z)",Queens,40.702147,-73.801109,1388337
2023Q3,279,"Sutphin Blvd-Archer Av-JFK Airport (E,J,Z)",Queens,40.700486,-73.807969,1483080
2023Q3,28,Union St (R),Brooklyn,40.677316,-73.98311,385538
2023Q3,280,Jamaica-Van Wyck (E),Queens,40.702566,-73.816859,239336
2023Q3,282,21 St (G),Queens,40.744065,-73.949724,118266
2023Q3,283,Greenpoint Av (G),Brooklyn,40.731352,-73.954449,613383
2023Q3,284,Nassau Av (G),Brooklyn,40.724635,-73.951277,567677
2023Q3,286,Broadway (G),Brooklyn,40.706092,-73.950308,270077
2023Q3,287,Flushing Av (G),Brooklyn,40.700377,-73.950234,171751
2023Q3,288,Myrtle-Willoughby Avs (G),Brooklyn,40.694568,-73.949046,306629
2023Q3,289,Bedford-Nostrand Avs (G),Brooklyn,40.689627,-73.953522,479460
2023Q3,290,Classon Av (G),Brooklyn,40.688873,-73.96007,321629
2023Q3,291,Clinton-Washington Avs (G),Brooklyn,40.688089,-73.966839,298776
2023Q3,292,Fulton St (G),Brooklyn,40.687119,-73.975375,347653
2023Q3,293,Van Cortlandt Park-242 St (1),Bronx,40.889248,-73.898583,347629
2023Q3,294,238 St (1),Bronx,40.884667,-73.90087,221979
2023Q3,295,231 St (1),Bronx,40.878856,-73.904834,427249
2023Q3,296,Marble Hill-225 St (1),Manhattan,40.874561,-73.909831,237143
2023Q3,297,215 St (1),Manhattan,40.869444,-73.915279,107606
2023Q3,298,207 St (1),Manhattan,40.864621,-73.918822,305084
2023Q3,299,Dyckman St (1),Manhattan,40.860531,-73.925536,331089
2023Q3,3,"30 Av (N,W)",Queens,40.766779,-73.921479,706826
2023Q3,30,Prospect Av (R),Brooklyn,40.665414,-73.992872,297239
2023Q3,300,191 St (1),Manhattan,40.855225,-73.929412,377962
2023Q3,301,181 St (1),Manhattan,40.849505,-73.933596,540233
2023Q3,303,157 St (1),Manhattan,40.834041,-73.94489,499664
2023Q3,304,145 St (1),Manhattan,40.826551,-73.95036,455821
2023Q3,305,137 St-City College (1),Manhattan,40.822008,-73.953676,668898
2023Q3,306,125 St (1),Manhattan,40.815581,-73.958372,471476
2023Q3,307,116 St-Columbia University (1),Manhattan,40.807722,-73.96411,798872
2023Q3,308,Cathedral Pkwy (110 St) (1),Manhattan,40.803967,-73.966847,665226
2023Q3,309,103 St (1),Manhattan,40.799446,-73.968379,680575
2023Q3,31,25 St (R),Brooklyn,40.660397,-73.998091,192538
2023Q3,310,"96 St (1,2,3)",Manhattan,40.793919,-73.972323,1836963
2023Q3,311,86 St (1),Manhattan,40.788644,-73.976218,921158
2023Q3,312,79 St (1),Manhattan,40.783934,-73.979917,837910
2023Q3,313,"72 St (1,2,3)",Manhattan,40.778453,-73.98197,2115932
2023Q3,314,66 St-Lincoln Center (1),Manhattan,40.77344,-73.982209,1070361
2023Q3,316,50 St (1),Manhattan,40.761728,-73.983849,1408684
2023Q3,318,"34 St-Penn Station (1,2,3)",Manhattan,40.750373,-73.991057,3786794
2023Q3,319,28 St (1),Manhattan,40.747215,-73.993365,713288
2023Q3,32,"36 St (D,N,R)",Brooklyn,40.655144,-74.003549,819660
2023Q3,320,23 St (1),Manhattan,40.744081,-73.995657,749776
2023Q3,321,18 St (1),Manhattan,40.74104,-73.997871,415832
2023Q3,323,Christopher St-Sheridan Sq (1),Manhattan,40.733422,-74.002906,661872
2023Q3,324,Houston St (1),Manhattan,40.728251,-74.005367,660913
2023Q3,325,Canal St (1),Manhattan,40.722854,-74.006277,279412
2023Q3,326,Franklin St (1),Manhattan,40.719318,-74.006886,321063
2023Q3,327,"Chambers St (1,2,3)",Manhattan,40.715478,-74.009266,878659
2023Q3,328,WTC Cortlandt (1),Manhattan,40.711835,-74.012188,809159
2023Q3,329,Rector St (1),Manhattan,40.707513,-74.013783,408039
2023Q3,33,45 St (R),Brooklyn,40.648939,-74.010006,443344
2023Q3,333,"Wall St (2,3)",Manhattan,40.706821,-74.0091,958772
2023Q3,334,"Clark St (2,3)",Brooklyn,40.697466,-73.993086,414510
2023Q3,336,"Hoyt St (2,3)",Brooklyn,40.690545,-73.985065,418747
2023Q3,337,"Nevins St (2,3,4,5)",Brooklyn,40.688246,-73.980492,518942
2023Q3,339,"Bergen St (2,3)",Brooklyn,40.680829,-73.975098,234643
2023Q3,34,53 St (R),Brooklyn,40.645069,-74.014034,479071
2023Q3,340,"Grand Army Plaza (2,3)",Brooklyn,40.675235,-73.971046,389912
2023Q3,341,"Eastern Pkwy-Brooklyn Museum (2,3)",Brooklyn,40.671987,-73.964375,261714
2023Q3,343,Nostrand Av (3),Brooklyn,40.669847,-73.950466,197370
2023Q3,344,Kingston Av (3),Brooklyn,40.669399,-73.942161,236874
2023Q3,345,"Crown Hts-Utica Av (3,4)",Brooklyn,40.668897,-73.932942,1245020
2023Q3,346,Sutter Av-Rutland Rd (3),Brooklyn,40.664717,-73.92261,307026
2023Q3,347,Saratoga Av (3),Brooklyn,40.661453,-73.916327,225805
2023Q3,348,Rockaway Av (3),Brooklyn,40.662549,-73.908946,198343
2023Q3,349,Junius St (3),Brooklyn,40.663515,-73.902447,115563
2023Q3,35,"59 St (N,R)",Brooklyn,40.641362,-74.017881,666993
2023Q3,350,Pennsylvania Av (3),Brooklyn,40.664635,-73.894895,206306
2023Q3,351,Van Siclen Av (3),Brooklyn,40.665449,-73.889395,118320
2023Q3,352,New Lots Av (3),Brooklyn,40.666235,-73.884079,276906
2023Q3,353,"President St-Medgar Evers College (2,5)",Brooklyn,40.667883,-73.950683,172961
2023Q3,354,"Sterling St (2,5)",Brooklyn,40.662742,-73.95085,297280
2023Q3,355,"Winthrop St (2,5)",Brooklyn,40.656652,-73.9502,392253
2023Q3,356,"Church Av (2,5)",Brooklyn,40.650843,-73.949575,468551
2023Q3,357,"Beverly Rd (2,5)",Brooklyn,40.645098,-73.948959,229961
2023Q3,358,"Newkirk Av-Little Haiti (2,5)",Brooklyn,40.639967,-73.948411,346787
2023Q3,359,"Flatbush Av-Brooklyn College (2,5)",Brooklyn,40.632836,-73.947642,910910
2023Q3,36,Bay Ridge Av (R),Brooklyn,40.634967,-74.023377,413343
2023Q3,360,Pelham Bay Park (6),Bronx,40.852462,-73.828121,307373
2023Q3,361,Buhre Av (6),Bronx,40.84681,-73.832569,174171
2023Q3,362,Middletown Rd (6),Bronx,40.843863,-73.836322,102103
2023Q3,363,Westchester Sq-E Tremont Av (6),Bronx,40.839892,-73.842952,148685
2023Q3,364,Zerega Av (6),Bronx,40.836488,-73.847036,121375
2023Q3,365,Castle Hill Av (6),Bronx,40.834255,-73.851222,225137
2023Q3,366,Parkchester (6),Bronx,40.833226,-73.860816,820465
2023Q3,367,St Lawrence Av (6),Bronx,40.831509,-73.867618,190634
2023Q3,368,Morrison Av-Soundview (6),Bronx,40.829521,-73.874516,281792
2023Q3,369,Elder Av (6),Bronx,40.828584,-73.879159,262439
2023Q3,37,77 St (R),Brooklyn,40.629742,-74.02551,284279
2023Q3,370,Whitlock Av (6),Bronx,40.826525,-73.886283,88712
2023Q3,371,Hunts Point Av (6),Bronx,40.820948,-73.890549,504508
2023Q3,372,Longwood Av (6),Bronx,40.816104,-73.896435,160222
2023Q3,373,E 149 St (6),Bronx,40.812118,-73.904098,221588
2023Q3,374,E 143 St-St Mary's St (6),Bronx,40.808719,-73.907657,55570
2023Q3,375,Cypress Av (6),Bronx,40.805368,-73.914042,118618
2023Q3,376,Brook Av (6),Bronx,40.807566,-73.91924,252102
2023Q3,377,3 Av-138 St (6),Bronx,40.810476,-73.926138,407999
2023Q3,378,Woodlawn (4),Bronx,40.886037,-73.878751,315014
2023Q3,379,Mosholu Pkwy (4),Bronx,40.87975,-73.884655,434537
2023Q3,38,86 St (R),Brooklyn,40.622687,-74.028398,612980
2023Q3,380,Bedford Park Blvd-Lehman College (4),Bronx,40.873412,-73.890064,276789
2023Q3,381,Kingsbridge Rd (4),Bronx,40.86776,-73.897174,483930
2023Q3,382,Fordham Rd (4),Bronx,40.862803,-73.901034,569110
2023Q3,383,183 St (4),Bronx,40.858407,-73.903879,278225
2023Q3,384,Burnside Av (4),Bronx,40.853453,-73.907684,440489
2023Q3,385,176 St (4),Bronx,40.84848,-73.911794,240175
2023Q3,386,Mt Eden Av (4),Bronx,40.844434,-73.914685,233766
2023Q3,387,170 St (4),Bronx,40.840075,-73.917791,351233
2023Q3,388,167 St (4),Bronx,40.835537,-73.9214,445903
2023Q3,39,Bay Ridge-95 St (R),Brooklyn,40.616622,-74.030876,287557
2023Q3,391,"138 St-Grand Concourse (4,5)",Bronx,40.813224,-73.929849,188360
2023Q3,392,"125 St (4,5,6)",Manhattan,40.804138,-73.937594,1235287
2023Q3,393,116 St (6),Manhattan,40.798629,-73.941617,635443
2023Q3,394,110 St (6),Manhattan,40.79502,-73.94425,489414
2023Q3,395,103 St (6),Manhattan,40.7906,-73.947478,617427
2023Q3,396,96 St (6),Manhattan,40.785672,-73.95107,896428
2023Q3,397,"86 St (4,5,6)",Manhattan,40.779492,-73.955589,2522757
2023Q3,398,77 St (6),Manhattan,40.77362,-73.959874,1474460
2023Q3,399,68 St-Hunter College (6),Manhattan,40.768141,-73.96387,1207270
2023Q3,4,"Broadway (N,W)",Queens,40.76182,-73.925508,649005
2023Q3,403,33 St (6),Manhattan,40.746081,-73.982076,1393491
2023Q3,404,28 St (6),Manhattan,40.74307,-73.984264,1077107
2023Q3,405,23 St (6),Manhattan,40.739864,-73.986599,1250757
2023Q3,407,Astor Pl (6),Manhattan,40.730054,-73.99107,866935
2023Q3,409,Spring St (6),Manhattan,40.722301,-73.997141,726710
2023Q3,41,"7 Av (B,Q)",Brooklyn,40.67705,-73.972367,511101
2023Q3,413,"Wall St (4,5)",Manhattan,40.707557,-74.011862,847073
2023Q3,414,"Bowling Green (4,5)",Manhattan,40.704817,-74.014065,1259808
2023Q3,416,Wakefield-241 St (2),Bronx,40.903125,-73.85062,209144
2023Q3,417,"Nereid Av (2,5)",Bronx,40.898379,-73.854376,138733
2023Q3,418,"233 St (2,5)",Bronx,40.893193,-73.857473,204955
2023Q3,419,"225 St (2,5)",Bronx,40.888022,-73.860341,144489
2023Q3,42,"Prospect Park (B,Q,S)",Brooklyn,40.661614,-73.962246,543938
2023Q3,420,"219 St (2,5)",Bronx,40.883895,-73.862633,116967
2023Q3,421,"Gun Hill Rd (2,5)",Bronx,40.87785,-73.866256,282731
2023Q3,422,"Burke Av (2,5)",Bronx,40.871356,-73.867164,127519
2023Q3,423,"Allerton Av (2,5)",Bronx,40.865462,-73.867352,205338
2023Q3,424,"Pelham Pkwy (2,5)",Bronx,40.857192,-73.867615,428572
2023Q3,425,"Bronx Park East (2,5)",Bronx,40.848828,-73.868457,108063
2023Q3,426,"E 180 St (2,5)",Bronx,40.841894,-73.873488,431529
2023Q3,427,"West Farms Sq-E Tremont Av (2,5)",Bronx,40.840295,-73.880049,246807
2023Q3,428,"174 St (2,5)",Bronx,40.837288,-73.887734,254054
2023Q3,429,"Freeman St (2,5)",Bronx,40.829993,-73.891865,187393
2023Q3,43,Parkside Av (Q),Brooklyn,40.655292,-73.961495,339731
2023Q3,430,"Simpson St (2,5)",Bronx,40.824073,-73.893064,316480
2023Q3,431,"Intervale Av (2,5)",Bronx,40.822181,-73.896736,136207
2023Q3,432,"Prospect Av (2,5)",Bronx,40.819585,-73.90177,294325
2023Q3,433,"Jackson Av (2,5)",Bronx,40.81649,-73.907807,211888
2023Q3,434,"3 Av-149 St (2,5)",Bronx,40.816109,-73.917757,783455
2023Q3,436,Harlem-148 St (3),Manhattan,40.82388,-73.93647,166169
2023Q3,437,145 St (3),Manhattan,40.820421,-73.936245,142188
2023Q3,438,"135 St (2,3)",Manhattan,40.814229,-73.94077,512656
2023Q3,439,"125 St (2,3)",Manhattan,40.807754,-73.945495,634023
2023Q3,44,"Church Av (B,Q)",Brooklyn,40.650527,-73.962982,775535
2023Q3,440,"116 St (2,3)",Manhattan,40.802098,-73.949625,473135
2023Q3,441,"Central Park North (110 St) (2,3)",Manhattan,40.799075,-73.951822,376520
2023Q3,442,Eastchester-Dyre Av (5),Bronx,40.8883,-73.830834,185589
2023Q3,443,Baychester Av (5),Bronx,40.878663,-73.838591,125706
2023Q3,444,Gun Hill Rd (5),Bronx,40.869526,-73.846384,226960
2023Q3,445,Pelham Pkwy (5),Bronx,40.858985,-73.855359,136523
2023Q3,446,Morris Park (5),Bronx,40.854364,-73.860495,126106
2023Q3,447,Flushing-Main St (7),Queens,40.7596,-73.83003,3567811
2023Q3,448,Mets-Willets Point (7),Queens,40.754622,-73.845625,891565
2023Q3,449,111 St (7),Queens,40.75173,-73.855334,383626
2023Q3,45,Beverley Rd (Q),Brooklyn,40.644031,-73.964492,194693
2023Q3,450,103 St-Corona Plaza (7),Queens,40.749865,-73.8627,1611468
2023Q3,451,Junction Blvd (7),Queens,40.749145,-73.869527,1630024
2023Q3,452,90 St-Elmhurst Av (7),Queens,40.748408,-73.876613,1119579
2023Q3,453,82 St-Jackson Hts (7),Queens,40.747659,-73.883697,446631
2023Q3,455,69 St (7),Queens,40.746325,-73.896403,340862
2023Q3,456,61 St-Woodside (7),Queens,40.74563,-73.902984,1057953
2023Q3,457,52 St (7),Queens,40.744149,-73.912549,346543
2023Q3,458,46 St-Bliss St (7),Queens,40.743132,-73.918435,718485
2023Q3,459,40 St-Lowery St (7),Queens,40.743781,-73.924016,528272
2023Q3,46,Cortelyou Rd (Q),Brooklyn,40.640927,-73.963891,316711
2023Q3,460,33 St-Rawson St (7),Queens,40.744587,-73.930997,389595
2023Q3,461,"Queensboro Plaza (7,N,W)",Queens,40.750582,-73.940202,1652236
2023Q3,463,Hunters Point Av (7),Queens,40.742216,-73.948916,264534
2023Q3,464,Vernon Blvd-Jackson Av (7),Queens,40.742626,-73.953581,950350
2023Q3,47,"Newkirk Plaza (B,Q)",Brooklyn,40.635082,-73.962793,526359
2023Q3,471,34 St-Hudson Yards (7),Manhattan,40.755882,-74.00191,1405927
2023Q3,475,96 St (Q),Manhattan,40.784318,-73.947152,934671
2023Q3,476,86 St (Q),Manhattan,40.777891,-73.951787,1295923
2023Q3,477,72 St (Q),Manhattan,40.768799,-73.958424,1543315
2023Q3,48,Avenue H (Q),Brooklyn,40.62927,-73.961639,156214
2023Q3,49,Avenue J (Q),Brooklyn,40.625039,-73.960803,280239
2023Q3,5,"36 Av (N,W)",Queens,40.756804,-73.929575,341532
2023Q3,50,Avenue M (Q),Brooklyn,40.617618,-73.959399,285429
2023Q3,501,St George (SIR),Staten Island,40.643748,-74.073643,468956
2023Q3,502,Tompkinsville (SIR),Staten Island,40.636949,-74.074835,36646
2023Q3,51,"Kings Hwy (B,Q)",Brooklyn,40.60867,-73.957734,1038465
2023Q3,52,Avenue U (Q),Brooklyn,40.5993,-73.955929,392866
2023Q3,53,Neck Rd (Q),Brooklyn,40.595246,-73.955161,233872
2023Q3,54,"Sheepshead Bay (B,Q)",Brooklyn,40.586896,-73.954155,697618
2023Q3,55,"Brighton Beach (B,Q)",Brooklyn,40.577621,-73.961376,719808
2023Q3,56,Ocean Pkwy (Q),Brooklyn,40.576312,-73.968501,193931
2023Q3,57,"W 8 St-NY Aquarium (F,Q)",Brooklyn,40.576127,-73.975939,217483
2023Q3,58,"Coney Island-Stillwell Av (D,F,N,Q)",Brooklyn,40.577422,-73.981233,1037676
2023Q3,59,9 Av (D),Brooklyn,40.646292,-73.994324,302921
2023Q3,6,"39 Av-Dutch Kills (N,W)",Queens,40.752882,-73.932755,195155
2023Q3,60,Fort Hamilton Pkwy (D),Brooklyn,40.640914,-73.994304,202444
2023Q3,601,"14 St (F,M,1,2,3)/6 Av (L)",Manhattan,40.737335,-73.996786,2780459
2023Q3,601,"14 St (F,M,1,2,3)/6 Av (L)",Manhattan,40.737826,-74.000201,2780459
2023Q3,601,"14 St (F,M,1,2,3)/6 Av (L)",Manhattan,40.738228,-73.996209,2780459
2023Q3,602,"14 St-Union Sq (L,N,Q,R,W,4,5,6)",Manhattan,40.734673,-73.989951,5171834
2023Q3,602,"14 St-Union Sq (L,N,Q,R,W,4,5,6)",Manhattan,40.734789,-73.99073,5171834
2023Q3,602,"14 St-Union Sq (L,N,Q,R,W,4,5,6)",Manhattan,40.735736,-73.990568,5171834
2023Q3,603,"149 St-Grand Concourse (2,4,5)",Bronx,40.818375,-73.927351,498630
2023Q3,603,"149 St-Grand Concourse (2,4,5)",Bronx,40.81841,-73.926718,498630
2023Q3,604,"161 St-Yankee Stadium (B,D,4)",Bronx,40.827905,-73.925651,1543045
2023Q3,604,"161 St-Yankee Stadium (B,D,4)",Bronx,40.827994,-73.925831,1543045
2023Q3,605,"168 St (A,C,1)",Manhattan,40.840556,-73.940133,1224430
2023Q3,605,"168 St (A,C,1)",Manhattan,40.840719,-73.939561,1224430
2023Q3,606,"Court Sq (E,G,M,7)",Queens,40.746554,-73.943832,1361995
2023Q3,606,"Court Sq (E,G,M,7)",Queens,40.747023,-73.945264,1361995
2023Q3,606,"Court Sq (E,G,M,7)",Queens,40.747846,-73.946,1361995
2023Q3,607,"34 St-Herald Sq (B,D,F,M,N,Q,R,W)",Manhattan,40.749567,-73.98795,5773136
2023Q3,607,"34 St-Herald Sq (B,D,F,M,N,Q,R,W)",Manhattan,40.749719,-73.987823,5773136
2023Q3,608,"4 Av (F,G)/9 St (R)",Brooklyn,40.670272,-73.989779,671196
2023Q3,608,"4 Av (F,G)/9 St (R)",Brooklyn,40.670847,-73.988302,671196
2023Q3,609,"Bryant Pk (B,D,F,M)/5 Av (7)",Manhattan,40.753821,-73.981963,2699388
2023Q3,609,"Bryant Pk (B,D,F,M)/5 Av (7)",Manhattan,40.754222,-73.984569,2699388
2023Q3,61,50 St (D),Brooklyn,40.63626,-73.994791,178649
2023Q3,610,"Grand Central-42 St (S,4,5,6,7)",Manhattan,40.751431,-73.976041,7866405
2023Q3,610,"Grand Central-42 St (S,4,5,6,7)",Manhattan,40.751776,-73.976848,7866405
2023Q3,610,"Grand Central-42 St (S,4,5,6,7)",Manhattan,40.752769,-73.979189,7866405
2023Q3,611,"Times Sq-42 St (N,Q,R,W,S,1,2,3,7)/42 St (A,C,E)",Manhattan,40.754672,-73.986754,11055079
2023Q3,611,"Times Sq-42 St (N,Q,R,W,S,1,2,3,7)/42 St (A,C,E)",Manhattan,40.75529,-73.987495,11055079
2023Q3,611,"Times Sq-42 St (N,Q,R,W,S,1,2,3,7)/42 St (A,C,E)",Manhattan,40.755477,-73.987691,11055079
2023Q3,611,"Times Sq-42 St (N,Q,R,W,S,1,2,3,7)/42 St (A,C,E)",Manhattan,40.755983,-73.986229,11055079
2023Q3,611,"Times Sq-42 St (N,Q,R,W,S,1,2,3,7)/42 St (A,C,E)",Manhattan,40.757308,-73.989735,11055079
2023Q3,612,"Lexington Av-53 St (E,M)/51 St (6)",Manhattan,40.757107,-73.97192,2684659
2023Q3,612,"Lexington Av-53 St (E,M)/51 St (6)",Manhattan,40.757552,-73.969055,2684659
2023Q3,613,"Lexington Av (N,R,W)/59 St (4,5,6)",Manhattan,40.762526,-73.967967,2838097
2023Q3,613,"Lexington Av (N,R,W)/59 St (4,5,6)",Manhattan,40.76266,-73.967258,2838097
2023Q3,614,"59 St-Columbus Circle (A,B,C,D,1)",Manhattan,40.768247,-73.981929,3826955
2023Q3,614,"59 St-Columbus Circle (A,B,C,D,1)",Manhattan,40.768296,-73.981736,3826955
2023Q3,615,New Utrecht Av (N)/62 St (D),Brooklyn,40.624842,-73.996353,282452
2023Q3,615,New Utrecht Av (N)/62 St (D),Brooklyn,40.626472,-73.996895,282452
2023Q3,616,"74-Broadway (7)/Jackson Hts-Roosevelt Av (E,F,M,R)",Queens,40.746644,-73.891338,3696512
2023Q3,616,"74-Broadway (7)/Jackson Hts-Roosevelt Av (E,F,M,R)",Queens,40.746848,-73.891394,3696512
2023Q3,617,"Atlantic Av-Barclays Ctr (B,D,N,Q,R,2,3,4,5)",Brooklyn,40.683666,-73.97881,2277255
2023Q3,617,"Atlantic Av-Barclays Ctr (B,D,N,Q,R,2,3,4,5)",Brooklyn,40.684359,-73.977666,2277255
2023Q3,617,"Atlantic Av-Barclays Ctr (B,D,N,Q,R,2,3,4,5)",Brooklyn,40.68446,-73.97689,2277255
2023Q3,618,"14 St (A,C,E)/8 Av (L)",Manhattan,40.739777,-74.002578,2734211
2023Q3,618,"14 St (A,C,E)/8 Av (L)",Manhattan,40.740893,-74.00169,2734211
2023Q3,619,"Broadway-Lafayette St (B,D,F,M)/Bleecker St (6)",Manhattan,40.725297,-73.996204,2303204
2023Q3,619,"Broadway-Lafayette St (B,D,F,M)/Bleecker St (6)",Manhattan,40.725915,-73.994659,2303204
2023Q3,62,55 St (D),Brooklyn,40.631435,-73.995476,94746
2023Q3,620,"Court St (R)/Borough Hall (2,3,4,5)",Brooklyn,40.692404,-73.990151,1457589
2023Q3,620,"Court St (R)/Borough Hall (2,3,4,5)",Brooklyn,40.693219,-73.989998,1457589
2023Q3,620,"Court St (R)/Borough Hall (2,3,4,5)",Brooklyn,40.6941,-73.991777,1457589
2023Q3,621,"Broadway Junction (A,C,J,L,Z)",Brooklyn,40.678334,-73.905316,460921
2023Q3,621,"Broadway Junction (A,C,J,L,Z)",Brooklyn,40.678856,-73.90324,460921
2023Q3,621,"Broadway Junction (A,C,J,L,Z)",Brooklyn,40.679498,-73.904512,460921
2023Q3,622,"Brooklyn Bridge-City Hall (4,5,6)/Chambers St (J,Z)",Manhattan,40.713065,-74.004131,1478230
2023Q3,622,"Brooklyn Bridge-City Hall (4,5,6)/Chambers St (J,Z)",Manhattan,40.713243,-74.003401,1478230
2023Q3,623,"Canal St (J,N,Q,R,W,Z,6)",Manhattan,40.718092,-73.999892,2721483
2023Q3,623,"Canal St (J,N,Q,R,W,Z,6)",Manhattan,40.718383,-74.00046,2721483
2023Q3,623,"Canal St (J,N,Q,R,W,Z,6)",Manhattan,40.718803,-74.000193,2721483
2023Q3,623,"Canal St (J,N,Q,R,W,Z,6)",Manhattan,40.719527,-74.001775,2721483
2023Q3,624,"Chambers St (A,C)/WTC (E)/Park Pl (2,3)/Cortlandt (R,W)",Manhattan,40.710668,-74.011029,3221792
2023Q3,624,"Chambers St (A,C)/WTC (E)/Park Pl (2,3)/Cortlandt (R,W)",Manhattan,40.712582,-74.009781,3221792
2023Q3,624,"Chambers St (A,C)/WTC (E)/Park Pl (2,3)/Cortlandt (R,W)",Manhattan,40.713051,-74.008811,3221792
2023Q3,624,"Chambers St (A,C)/WTC (E)/Park Pl (2,3)/Cortlandt (R,W)",Manhattan,40.714111,-74.008585,3221792
2023Q3,625,"Delancey St (F)/Essex St (J,M,Z)",Manhattan,40.718315,-73.987437,1725193
2023Q3,625,"Delancey St (F)/Essex St (J,M,Z)",Manhattan,40.718611,-73.988114,1725193
2023Q3,626,"Franklin Av (2,3,4,5)/Botanic Garden (S)",Brooklyn,40.670343,-73.959245,799394
2023Q3,626,"Franklin Av (2,3,4,5)/Botanic Garden (S)",Brooklyn,40.670682,-73.958131,799394
2023Q3,627,"Franklin Av (C,S)",Brooklyn,40.680596,-73.955827,296311
2023Q3,627,"Franklin Av (C,S)",Brooklyn,40.68138,-73.956848,296311
2023Q3,628,"Fulton St (A,C,J,Z,2,3,4,5)",Manhattan,40.709416,-74.006571,4628988
2023Q3,628,"Fulton St (A,C,J,Z,2,3,4,5)",Manhattan,40.710197,-74.007691,4628988
2023Q3,628,"Fulton St (A,C,J,Z,2,3,4,5)",Manhattan,40.710368,-74.009509,4628988
2023Q3,628,"Fulton St (A,C,J,Z,2,3,4,5)",Manhattan,40.710374,-74.007582,4628988
2023Q3,629,Lorimer St (L)/Metropolitan Av (G),Brooklyn,40.712792,-73.951418,983427
2023Q3,629,Lorimer St (L)/Metropolitan Av (G),Brooklyn,40.714063,-73.950275,983427
2023Q3,630,"Myrtle-Wyckoff Avs (L,M)",Brooklyn,40.69943,-73.912385,1193770
2023Q3,630,"Myrtle-Wyckoff Avs (L,M)",Brooklyn,40.699814,-73.911586,1193770
2023Q3,635,"South Ferry (1)/Whitehall St (R,W)",Manhattan,40.702068,-74.013664,1669706
2023Q3,635,"South Ferry (1)/Whitehall St (R,W)",Manhattan,40.703087,-74.012994,1669706
2023Q3,636,"Jay St-MetroTech (A,C,F,R)",Brooklyn,40.69218,-73.985942,1797310
2023Q3,636,"Jay St-MetroTech (A,C,F,R)",Brooklyn,40.692338,-73.987342,1797310
2023Q3,64,71 St (D),Brooklyn,40.619589,-73.998864,266299
2023Q3,65,79 St (D),Brooklyn,40.613501,-74.00061,310440
2023Q3,66,18 Av (D),Brooklyn,40.607954,-74.001736,328503
2023Q3,67,20 Av (D),Brooklyn,40.604556,-73.998168,278125
2023Q3,68,Bay Pkwy (D),Brooklyn,40.601875,-73.993728,427498
2023Q3,69,25 Av (D),Brooklyn,40.597704,-73.986829,239456
2023Q3,70,Bay 50 St (D),Brooklyn,40.588841,-73.983765,134578
2023Q3,71,8 Av (N),Brooklyn,40.635064,-74.011719,607838
2023Q3,72,Fort Hamilton Pkwy (N),Brooklyn,40.631386,-74.005351,354512
2023Q3,74,18 Av (N),Brooklyn,40.620671,-73.990414,273445
2023Q3,75,20 Av (N),Brooklyn,40.61741,-73.985026,212650
2023Q3,76,Bay Pkwy (N),Brooklyn,40.611815,-73.981848,365237
2023Q3,77,Kings Hwy (N),Brooklyn,40.603923,-73.980353,290459
2023Q3,78,Avenue U (N),Brooklyn,40.597473,-73.979137,206796
2023Q3,79,86 St (N),Brooklyn,40.592721,-73.97823,128969
2023Q3,8,"5 Av/59 St (N,R,W)",Manhattan,40.764811,-73.973347,787671
2023Q3,80,"121 St (J,Z)",Queens,40.700492,-73.828294,114468
2023Q3,81,111 St (J),Queens,40.697418,-73.836345,104282
2023Q3,82,"104 St (J,Z)",Queens,40.695178,-73.84433,140313
2023Q3,83,"Woodhaven Blvd (J,Z)",Queens,40.693879,-73.851576,120012
2023Q3,84,85 St-Forest Pkwy (J),Queens,40.692435,-73.86001,199508
2023Q3,85,"75 St-Elderts Ln (J,Z)",Queens,40.691324,-73.867139,84309
2023Q3,86,Cypress Hills (J),Brooklyn,40.689941,-73.87255,66000
2023Q3,87,"Crescent St (J,Z)",Brooklyn,40.683194,-73.873785,179619
2023Q3,88,"Norwood Av (J,Z)",Brooklyn,40.68141,-73.880039,106194
2023Q3,89,Cleveland St (J),Brooklyn,40.679947,-73.884639,98203
2023Q3,9,"57 St-7 Av (N,Q,R,W)",Manhattan,40.764664,-73.980658,1852526
2023Q3,90,"Van Siclen Av (J,Z)",Brooklyn,40.678024,-73.891688,118092
2023Q3,91,Alabama Av (J),Brooklyn,40.676992,-73.898654,93281
2023Q3,93,"Chauncey St (J,Z)",Brooklyn,40.682893,-73.910456,155526
2023Q3,94,Halsey St (J),Brooklyn,40.68637,-73.916559,307795
2023Q3,95,"Gates Av (J,Z)",Brooklyn,40.68963,-73.92227,351441
2023Q3,96,Kosciuszko St (J),Brooklyn,40.693342,-73.928814,294637
2023Q3,97,"Myrtle Av (M,J,Z)",Brooklyn,40.697207,-73.935657,653436
2023Q3,98,"Flushing Av (M,J)",Brooklyn,40.70026,-73.941126,388938
2023Q3,99,"Lorimer St (M,J)",Brooklyn,40.703869,-73.947408,213316
2023Q3,TRAM1,RI Tramway (Manhattan),Manhattan,40.761338,-73.964155,432424
2023Q3,TRAM2,RI Tramway (Roosevelt),Manhattan,40.75734,-73.954114,389989
2023Q4,1,"Astoria-Ditmars Blvd (N,W)",Queens,40.775036,-73.912034,880191
2023Q4,10,"49 St (N,R,W)",Manhattan,40.759901,-73.984139,1579816
2023Q4,100,"Hewes St (M,J)",Brooklyn,40.70687,-73.953431,154548
2023Q4,101,"Marcy Av (M,J,Z)",Brooklyn,40.708359,-73.957757,699607
2023Q4,103,"Bowery (J,Z)",Manhattan,40.72028,-73.993915,217102
2023Q4,107,"Broad St (J,Z)",Manhattan,40.706476,-74.011056,314761
2023Q4,108,Middle Village-Metropolitan Av (M),Queens,40.711396,-73.889601,222650
2023Q4,109,Fresh Pond Rd (M),Queens,40.706186,-73.895877,313727
2023Q4,110,Forest Av (M),Queens,40.704423,-73.903077,237143
2023Q4,111,Seneca Av (M),Queens,40.702762,-73.90774,154995
2023Q4,113,Knickerbocker Av (M),Brooklyn,40.698664,-73.919711,211415
2023Q4,114,Central Av (M),Brooklyn,40.697857,-73.927397,204739
2023Q4,118,3 Av (L),Manhattan,40.732849,-73.986122,427197
2023Q4,119,1 Av (L),Manhattan,40.730953,-73.981628,1460517
2023Q4,120,Bedford Av (L),Brooklyn,40.717304,-73.956872,2193655
2023Q4,122,Graham Av (L),Brooklyn,40.714565,-73.944053,574396
2023Q4,123,Grand St (L),Brooklyn,40.711926,-73.94067,386503
2023Q4,124,Montrose Av (L),Brooklyn,40.707739,-73.93985,430232
2023Q4,125,Morgan Av (L),Brooklyn,40.706152,-73.933147,467987
2023Q4,126,Jefferson St (L),Brooklyn,40.706607,-73.922913,555697
2023Q4,127,DeKalb Av (L),Brooklyn,40.703811,-73.918425,710030
2023Q4,129,Halsey St (L),Queens,40.695602,-73.904084,430866
2023Q4,13,"28 St (R,W)",Manhattan,40.745494,-73.988691,721723
2023Q4,130,Wilson Av (L),Brooklyn,40.688764,-73.904046,241824
2023Q4,131,Bushwick Av-Aberdeen St (L),Brooklyn,40.682829,-73.905249,141891
2023Q4,133,Atlantic Av (L),Brooklyn,40.675345,-73.903097,97534
2023Q4,134,Sutter Av (L),Brooklyn,40.669367,-73.901975,112385
2023Q4,135,Livonia Av (L),Brooklyn,40.664038,-73.900571,137344
2023Q4,136,New Lots Av (L),Brooklyn,40.658733,-73.899232,172179
2023Q4,137,East 105 St (L),Brooklyn,40.650573,-73.899485,150935
2023Q4,138,Canarsie-Rockaway Pkwy (L),Brooklyn,40.646654,-73.90185,163885
2023Q4,14,"23 St (R,W)",Manhattan,40.741303,-73.989344,1134637
2023Q4,141,Park Pl (S),Brooklyn,40.674772,-73.957624,90314
2023Q4,143,Inwood-207 St (A),Manhattan,40.868072,-73.919899,469263
2023Q4,144,Dyckman St (A),Manhattan,40.865491,-73.927271,352201
2023Q4,145,190 St (A),Manhattan,40.859022,-73.93418,253604
2023Q4,146,181 St (A),Manhattan,40.851695,-73.937969,491330
2023Q4,147,175 St (A),Manhattan,40.847391,-73.939704,596217
2023Q4,149,163 St-Amsterdam Av (C),Manhattan,40.836013,-73.939892,218660
